[{"name":"A' Chill","type":"hamlet","lat":57.05765,"lng":-6.50082},{"name":"A' Chrìon Làraich","type":"village","lat":56.39264,"lng":-4.61591},{"name":"Aaron's Hill","type":"suburb","lat":51.18291,"lng":-0.63098},{"name":"Ab Kettleby","type":"village","lat":52.80007,"lng":-0.92801},{"name":"Ab Lench","type":"hamlet","lat":52.16445,"lng":-1.98339},{"name":"Abaty Cwm-hir","type":"hamlet","lat":52.33104,"lng":-3.38988},{"name":"Abbas Combe","type":"village","lat":51.00283,"lng":-2.41825},{"name":"Abberley","type":"village","lat":52.30522,"lng":-2.37574},{"name":"Abberton","type":"hamlet","lat":52.17955,"lng":-2.00817},{"name":"Abberton","type":"village","lat":51.8344,"lng":0.91066},{"name":"Abberwick","type":"settlement","lat":55.41325,"lng":-1.7972},{"name":"Abbess Roding","type":"village","lat":51.77815,"lng":0.27685},{"name":"Abbey","type":"hamlet","lat":50.88896,"lng":-3.22276},{"name":"Abbey Dore","type":"village","lat":51.96946,"lng":-2.89607},{"name":"Abbey End","type":"suburb","lat":52.34412,"lng":-1.58043},{"name":"Abbey Fields","type":"suburb","lat":52.3449,"lng":-1.58497},{"name":"Abbey Green","type":"hamlet","lat":52.89393,"lng":-2.73475},{"name":"Abbey Green","type":"hamlet","lat":53.11713,"lng":-2.03283},{"name":"Abbey Hulton","type":"suburb","lat":53.03506,"lng":-2.14002},{"name":"Abbey Meads","type":"suburb","lat":51.60084,"lng":-1.79642},{"name":"Abbey Parks","type":"suburb","lat":56.06989,"lng":-3.46159},{"name":"Abbey St Bathans","type":"hamlet","lat":55.84934,"lng":-2.38104},{"name":"Abbey Village","type":"village","lat":53.70007,"lng":-2.54594},{"name":"Abbey Wood","type":"suburb","lat":51.49083,"lng":0.10803},{"name":"Abbeydale","type":"suburb","lat":51.84615,"lng":-2.19922},{"name":"Abbeydale","type":"suburb","lat":52.3117,"lng":-1.92659},{"name":"Abbeydale","type":"suburb","lat":53.33603,"lng":-1.51011},{"name":"Abbeydale Park","type":"suburb","lat":53.32291,"lng":-1.52539},{"name":"Abbeyhill","type":"suburb","lat":55.95738,"lng":-3.1697},{"name":"Abbeystead","type":"hamlet","lat":53.98364,"lng":-2.66703},{"name":"Abbeytown","type":"village","lat":54.84466,"lng":-3.2897},{"name":"Abbot's Mead","type":"suburb","lat":53.20672,"lng":-2.90149},{"name":"Abbot's Salford","type":"village","lat":52.15082,"lng":-1.90108},{"name":"Abbotrule","type":"settlement","lat":55.40936,"lng":-2.61892},{"name":"Abbots Bickington","type":"hamlet","lat":50.89745,"lng":-4.29936},{"name":"Abbots Bromley","type":"village","lat":52.81719,"lng":-1.87725},{"name":"Abbots Langley","type":"village","lat":51.70577,"lng":-0.41754},{"name":"Abbots Leigh","type":"village","lat":51.46071,"lng":-2.6664},{"name":"Abbots Morton","type":"village","lat":52.19399,"lng":-1.96037},{"name":"Abbots Ripton","type":"village","lat":52.3872,"lng":-0.19329},{"name":"Abbots Worthy","type":"village","lat":51.09132,"lng":-1.29097},{"name":"Abbotsbury","type":"suburb","lat":50.53296,"lng":-3.61246},{"name":"Abbotsbury","type":"village","lat":50.66559,"lng":-2.59953},{"name":"Abbotsford","type":"hamlet","lat":50.97296,"lng":-0.14434},{"name":"Abbotsham","type":"village","lat":51.01613,"lng":-4.24738},{"name":"Abbotside","type":"settlement","lat":51.61351,"lng":-2.45223},{"name":"Abbotskerswell","type":"village","lat":50.50767,"lng":-3.61335},{"name":"Abbotsley","type":"village","lat":52.19323,"lng":-0.20294},{"name":"Abbotsmead","type":"suburb","lat":54.11594,"lng":-3.20135},{"name":"Abbotstone","type":"hamlet","lat":51.10725,"lng":-1.19707},{"name":"Abbotswood","type":"hamlet","lat":52.14157,"lng":-2.16338},{"name":"Abbotswood","type":"suburb","lat":51.25201,"lng":-0.55628},{"name":"Abbotswood","type":"village","lat":51.00926,"lng":-1.4866},{"name":"Abbotts Ann","type":"village","lat":51.19068,"lng":-1.5314},{"name":"Abbotts Barton","type":"suburb","lat":51.07494,"lng":-1.31359},{"name":"Abcott","type":"hamlet","lat":52.40201,"lng":-2.89624},{"name":"Abdon","type":"hamlet","lat":52.4734,"lng":-2.62848},{"name":"Abenhall","type":"settlement","lat":51.85366,"lng":-2.4809},{"name":"Aber","type":"hamlet","lat":51.88376,"lng":-3.30157},{"name":"Aber","type":"hamlet","lat":52.11315,"lng":-4.22539},{"name":"Aber Eiddy","type":"hamlet","lat":51.93609,"lng":-5.20449},{"name":"Aber Pwll","type":"suburb","lat":53.19137,"lng":-4.19611},{"name":"Aber Rhaeadr","type":"hamlet","lat":52.81463,"lng":-3.29169},{"name":"Aber-Arad","type":"suburb","lat":52.03596,"lng":-4.45692},{"name":"Aber-Clydach","type":"suburb","lat":51.69447,"lng":-3.89984},{"name":"Aber-Cywarch","type":"hamlet","lat":52.72773,"lng":-3.67705},{"name":"Aber-Giâr","type":"hamlet","lat":52.04798,"lng":-4.1835},{"name":"Aber-Tafol","type":"hamlet","lat":52.55357,"lng":-3.99401},{"name":"Aber-banc","type":"village","lat":52.04967,"lng":-4.39876},{"name":"Aber-miwl","type":"village","lat":52.54414,"lng":-3.23671},{"name":"Aber-nant","type":"suburb","lat":52.97813,"lng":-3.07938},{"name":"Aber-oer","type":"hamlet","lat":53.03354,"lng":-3.06743},{"name":"Aberaeron","type":"town","lat":52.24226,"lng":-4.25925},{"name":"Aberaman","type":"suburb","lat":51.70173,"lng":-3.42969},{"name":"Aberangell","type":"village","lat":52.67812,"lng":-3.7116},{"name":"Aberargie","type":"village","lat":56.3269,"lng":-3.35753},{"name":"Aberarth","type":"village","lat":52.25011,"lng":-4.2282},{"name":"Aberavon","type":"suburb","lat":51.59331,"lng":-3.80199},{"name":"Aberbargoed","type":"village","lat":51.69369,"lng":-3.22416},{"name":"Aberbechan","type":"hamlet","lat":52.53735,"lng":-3.27475},{"name":"Aberbeeg","type":"village","lat":51.71028,"lng":-3.14801},{"name":"Aberbran","type":"hamlet","lat":51.95603,"lng":-3.47962},{"name":"Abercanaid","type":"village","lat":51.72359,"lng":-3.36443},{"name":"Abercarn","type":"town","lat":51.64734,"lng":-3.13475},{"name":"Abercastle","type":"hamlet","lat":51.9582,"lng":-5.12466},{"name":"Abercegir","type":"village","lat":52.60032,"lng":-3.76894},{"name":"Aberchalder","type":"hamlet","lat":57.09339,"lng":-4.74371},{"name":"Aberchirder","type":"town","lat":57.56028,"lng":-2.62878},{"name":"Aberchwiler","type":"village","lat":53.21354,"lng":-3.35404},{"name":"Abercorn","type":"hamlet","lat":55.99415,"lng":-3.47281},{"name":"Abercrave","type":"village","lat":51.7998,"lng":-3.71722},{"name":"Abercregan","type":"village","lat":51.65629,"lng":-3.66362},{"name":"Abercrombie","type":"hamlet","lat":56.21573,"lng":-2.77899},{"name":"Abercwmboi","type":"suburb","lat":51.68971,"lng":-3.41103},{"name":"Abercych","type":"village","lat":52.03871,"lng":-4.555},{"name":"Abercynon","type":"town","lat":51.64611,"lng":-3.32849},{"name":"Aberdalgie","type":"settlement","lat":56.36552,"lng":-3.49262},{"name":"Aberdare","type":"town","lat":51.71356,"lng":-3.44778},{"name":"Aberdaron","type":"village","lat":52.81058,"lng":-4.70736},{"name":"Aberdaugleddau","type":"town","lat":51.71308,"lng":-5.03598},{"name":"Aberdeen","type":"city","lat":57.14985,"lng":-2.09376},{"name":"Aberdesach","type":"village","lat":53.03608,"lng":-4.34901},{"name":"Aberdour","type":"village","lat":56.05372,"lng":-3.30185},{"name":"Aberdulais","type":"village","lat":51.68154,"lng":-3.77478},{"name":"Aberdyfi","type":"village","lat":52.54395,"lng":-4.04434},{"name":"Aberedw","type":"village","lat":52.11716,"lng":-3.34692},{"name":"Abererch","type":"village","lat":52.90344,"lng":-4.38329},{"name":"Aberfan","type":"village","lat":51.69282,"lng":-3.34593},{"name":"Aberfeldy","type":"town","lat":56.61901,"lng":-3.86844},{"name":"Aberffraw","type":"village","lat":53.1914,"lng":-4.46484},{"name":"Aberffrwd","type":"hamlet","lat":52.39171,"lng":-3.93168},{"name":"Aberford","type":"village","lat":53.82978,"lng":-1.34296},{"name":"Aberfoyle","type":"village","lat":56.17811,"lng":-4.37868},{"name":"Abergarw","type":"suburb","lat":51.5539,"lng":-3.57447},{"name":"Abergarwed","type":"village","lat":51.70767,"lng":-3.71412},{"name":"Abergavenny","type":"town","lat":51.82194,"lng":-3.01838},{"name":"Abergeirw","type":"hamlet","lat":52.83807,"lng":-3.83366},{"name":"Abergeldie","type":"hamlet","lat":57.04142,"lng":-3.1775},{"name":"Abergele","type":"town","lat":53.28438,"lng":-3.58292},{"name":"Abergorlech","type":"village","lat":51.98292,"lng":-4.06208},{"name":"Abergwaun","type":"town","lat":51.99387,"lng":-4.97619},{"name":"Abergwesyn","type":"hamlet","lat":52.16109,"lng":-3.67564},{"name":"Abergwili","type":"village","lat":51.86854,"lng":-4.27218},{"name":"Abergwynfi","type":"village","lat":51.65334,"lng":-3.60109},{"name":"Abergwyngregyn","type":"village","lat":53.23395,"lng":-4.01522},{"name":"Abergynolwyn","type":"village","lat":52.64459,"lng":-3.95669},{"name":"Aberhafesp","type":"village","lat":52.52133,"lng":-3.37364},{"name":"Aberhonddu","type":"town","lat":51.94762,"lng":-3.39168},{"name":"Aberhosan","type":"village","lat":52.56139,"lng":-3.75437},{"name":"Aberkenfig","type":"village","lat":51.54022,"lng":-3.59678},{"name":"Aberlady","type":"village","lat":56.00952,"lng":-2.8589},{"name":"Aberlemno","type":"hamlet","lat":56.69053,"lng":-2.78326},{"name":"Aberllefenni","type":"village","lat":52.67356,"lng":-3.81973},{"name":"Aberllynfi","type":"village","lat":52.03323,"lng":-3.20444},{"name":"Abermagwr","type":"hamlet","lat":52.34607,"lng":-3.96027},{"name":"Abermaw","type":"town","lat":52.72204,"lng":-4.0559},{"name":"Abermeurig","type":"hamlet","lat":52.1832,"lng":-4.10744},{"name":"Abermorddu","type":"village","lat":53.10422,"lng":-3.03375},{"name":"Abermorlais","type":"suburb","lat":51.749,"lng":-3.38141},{"name":"Abernant","type":"hamlet","lat":51.88269,"lng":-4.41259},{"name":"Abernant","type":"suburb","lat":51.71925,"lng":-3.43601},{"name":"Abernethy","type":"village","lat":56.33262,"lng":-3.31141},{"name":"Abernyte","type":"village","lat":56.46729,"lng":-3.20498},{"name":"Aberporth","type":"village","lat":52.13256,"lng":-4.54172},{"name":"Aberriw","type":"village","lat":52.59948,"lng":-3.19976},{"name":"Abersoch","type":"village","lat":52.82472,"lng":-4.50436},{"name":"Abersychan","type":"town","lat":51.73582,"lng":-3.0672},{"name":"Abertawe","type":"city","lat":51.62011,"lng":-3.94142},{"name":"Aberteifi","type":"town","lat":52.08359,"lng":-4.66085},{"name":"Aberthin","type":"village","lat":51.46798,"lng":-3.42632},{"name":"Abertridwr","type":"village","lat":51.59613,"lng":-3.27134},{"name":"Abertridwr","type":"village","lat":52.76106,"lng":-3.43337},{"name":"Abertyleri","type":"town","lat":51.73037,"lng":-3.13386},{"name":"Abertysswg","type":"village","lat":51.74229,"lng":-3.25931},{"name":"Aberuthven","type":"village","lat":56.31966,"lng":-3.64999},{"name":"Aberyscir","type":"hamlet","lat":51.95848,"lng":-3.45755},{"name":"Aberystwyth","type":"town","lat":52.41499,"lng":-4.08367},{"name":"Abingdon-on-Thames","type":"town","lat":51.67014,"lng":-1.28098},{"name":"Abinger Bottom","type":"hamlet","lat":51.19096,"lng":-0.3878},{"name":"Abinger Common","type":"village","lat":51.19953,"lng":-0.40182},{"name":"Abinger Hammer","type":"village","lat":51.21417,"lng":-0.43146},{"name":"Abington","type":"suburb","lat":52.24496,"lng":-0.8584},{"name":"Abington","type":"village","lat":55.49206,"lng":-3.69204},{"name":"Abington Pigotts","type":"village","lat":52.08326,"lng":-0.09371},{"name":"Abington Vale","type":"suburb","lat":52.24133,"lng":-0.85183},{"name":"Abingworth","type":"hamlet","lat":50.93945,"lng":-0.43327},{"name":"Ablington","type":"hamlet","lat":51.22188,"lng":-1.77288},{"name":"Ablington","type":"village","lat":51.7673,"lng":-1.84998},{"name":"Abney","type":"hamlet","lat":53.31482,"lng":-1.70443},{"name":"Above Church","type":"hamlet","lat":53.05089,"lng":-1.97697},{"name":"Aboyne","type":"village","lat":57.07588,"lng":-2.79208},{"name":"Abraham Heights","type":"suburb","lat":54.04421,"lng":-2.81772},{"name":"Abram","type":"village","lat":53.50949,"lng":-2.59264},{"name":"Abram Brow","type":"suburb","lat":53.50791,"lng":-2.59027},{"name":"Abriachan","type":"settlement","lat":57.38625,"lng":-4.40428},{"name":"Abridge","type":"village","lat":51.65108,"lng":0.11802},{"name":"Abronhill","type":"suburb","lat":55.95798,"lng":-3.9486},{"name":"Abshot","type":"hamlet","lat":50.84747,"lng":-1.26597},{"name":"Abson","type":"hamlet","lat":51.47201,"lng":-2.42655},{"name":"Abthorpe","type":"village","lat":52.11252,"lng":-1.05275},{"name":"Abune-the-Hill","type":"settlement","lat":59.13606,"lng":-3.23533},{"name":"Abwell","type":"hamlet","lat":51.70508,"lng":-2.45873},{"name":"Aby","type":"village","lat":53.28342,"lng":0.11672},{"name":"Acairseid","type":"hamlet","lat":57.07015,"lng":-7.29541},{"name":"Acaster Malbis","type":"village","lat":53.90186,"lng":-1.10691},{"name":"Acaster Selby","type":"settlement","lat":53.8657,"lng":-1.12883},{"name":"Accrington","type":"town","lat":53.75275,"lng":-2.36424},{"name":"Acha","type":"hamlet","lat":56.6009,"lng":-6.58637},{"name":"Achachork","type":"village","lat":57.43261,"lng":-6.19851},{"name":"Achadh Fairidh","type":"settlement","lat":58.30413,"lng":-4.90541},{"name":"Achadh na Sine","type":"settlement","lat":57.57667,"lng":-5.08156},{"name":"Achahoish","type":"hamlet","lat":55.93985,"lng":-5.55683},{"name":"Achalone","type":"settlement","lat":58.49279,"lng":-3.45459},{"name":"Achanalt","type":"hamlet","lat":57.61021,"lng":-4.9272},{"name":"Achandunie","type":"hamlet","lat":57.71839,"lng":-4.2772},{"name":"Achantraid","type":"village","lat":57.38869,"lng":-5.59587},{"name":"Achany","type":"hamlet","lat":57.98,"lng":-4.42114},{"name":"Achaphubuil","type":"hamlet","lat":56.83532,"lng":-5.1436},{"name":"Acharacle","type":"village","lat":56.74961,"lng":-5.80384},{"name":"Acharn","type":"village","lat":56.57013,"lng":-4.02563},{"name":"Achastle","type":"hamlet","lat":58.29336,"lng":-3.31183},{"name":"Achavandra Muir","type":"settlement","lat":57.91884,"lng":-4.07669},{"name":"Achavanich","type":"settlement","lat":58.36463,"lng":-3.40382},{"name":"Achavar","type":"settlement","lat":58.31594,"lng":-3.25999},{"name":"Achddu","type":"suburb","lat":51.69076,"lng":-4.24895},{"name":"Achduart","type":"settlement","lat":57.98019,"lng":-5.30025},{"name":"Achduchil","type":"hamlet","lat":57.00164,"lng":-4.31757},{"name":"Acheninver","type":"settlement","lat":57.99451,"lng":-5.3144},{"name":"Achfrish","type":"hamlet","lat":58.07192,"lng":-4.43466},{"name":"Achgarve","type":"hamlet","lat":57.8816,"lng":-5.55575},{"name":"Achiemore","type":"hamlet","lat":58.49376,"lng":-3.89751},{"name":"Achiltibuie","type":"village","lat":58.01495,"lng":-5.33837},{"name":"Achilty","type":"hamlet","lat":57.57497,"lng":-4.60732},{"name":"Achina","type":"hamlet","lat":58.51793,"lng":-4.22086},{"name":"Achindown","type":"settlement","lat":57.50709,"lng":-3.93884},{"name":"Achinduich","type":"hamlet","lat":57.96589,"lng":-4.40097},{"name":"Achingills","type":"settlement","lat":58.54424,"lng":-3.45663},{"name":"Achintee","type":"hamlet","lat":57.41884,"lng":-5.42923},{"name":"Achlonan","type":"suburb","lat":56.43315,"lng":-5.23324},{"name":"Achlorachan","type":"hamlet","lat":57.55544,"lng":-4.79473},{"name":"Achluachrach","type":"hamlet","lat":56.88963,"lng":-4.7918},{"name":"Achlyness","type":"hamlet","lat":58.42563,"lng":-5.00103},{"name":"Achmelvich","type":"settlement","lat":58.16836,"lng":-5.30351},{"name":"Achmore","type":"settlement","lat":57.91528,"lng":-5.33788},{"name":"Achmore","type":"village","lat":57.34166,"lng":-5.56476},{"name":"Achnabat","type":"suburb","lat":58.5318,"lng":-4.29923},{"name":"Achnacarnin","type":"hamlet","lat":58.23159,"lng":-5.33725},{"name":"Achnacarry","type":"hamlet","lat":56.94632,"lng":-5.00157},{"name":"Achnacloich","type":"settlement","lat":57.10762,"lng":-5.98489},{"name":"Achnaconeran","type":"settlement","lat":57.22462,"lng":-4.62467},{"name":"Achnacroish","type":"hamlet","lat":56.5116,"lng":-5.49378},{"name":"Achnagarron","type":"hamlet","lat":57.70267,"lng":-4.21087},{"name":"Achnagoul","type":"settlement","lat":56.20178,"lng":-5.13012},{"name":"Achnaha","type":"hamlet","lat":56.73672,"lng":-6.15007},{"name":"Achnahanat","type":"settlement","lat":57.94772,"lng":-4.50624},{"name":"Achnahuaigh","type":"suburb","lat":58.54255,"lng":-4.44136},{"name":"Achnairn","type":"hamlet","lat":58.07938,"lng":-4.45612},{"name":"Achnamara","type":"village","lat":56.02544,"lng":-5.56602},{"name":"Achnandarach","type":"hamlet","lat":57.31757,"lng":-5.64676},{"name":"Achnashellach","type":"hamlet","lat":57.47974,"lng":-5.33409},{"name":"Achnavast","type":"hamlet","lat":58.55713,"lng":-3.58367},{"name":"Achosnich","type":"hamlet","lat":56.72558,"lng":-6.17883},{"name":"Achow","type":"settlement","lat":58.31298,"lng":-3.31549},{"name":"Achranich","type":"settlement","lat":56.56201,"lng":-5.74117},{"name":"Achreamie","type":"settlement","lat":58.57666,"lng":-3.69037},{"name":"Achriesgill","type":"hamlet","lat":58.43992,"lng":-4.98972},{"name":"Achrimsdale","type":"hamlet","lat":58.03405,"lng":-3.85366},{"name":"Achscrabster","type":"settlement","lat":58.55005,"lng":-3.57414},{"name":"Achterneed","type":"hamlet","lat":57.60087,"lng":-4.52963},{"name":"Achtoty","type":"suburb","lat":58.52862,"lng":-4.27856},{"name":"Achurch","type":"hamlet","lat":52.4347,"lng":-0.49511},{"name":"Achuvoldrach","type":"settlement","lat":58.49655,"lng":-4.45966},{"name":"Ackenthwaite","type":"village","lat":54.22952,"lng":-2.75881},{"name":"Ackergill","type":"hamlet","lat":58.4601,"lng":-3.11332},{"name":"Ackergillshore","type":"hamlet","lat":58.47313,"lng":-3.1016},{"name":"Ackers Crossing","type":"hamlet","lat":53.12742,"lng":-2.22966},{"name":"Acklam","type":"suburb","lat":54.5429,"lng":-1.2543},{"name":"Acklam","type":"village","lat":54.0452,"lng":-0.80555},{"name":"Ackleton","type":"village","lat":52.5853,"lng":-2.34023},{"name":"Acklington","type":"village","lat":55.30987,"lng":-1.65016},{"name":"Ackton","type":"village","lat":53.69139,"lng":-1.37831},{"name":"Ackworth Moor Top","type":"village","lat":53.64052,"lng":-1.34421},{"name":"Acle","type":"village","lat":52.63944,"lng":1.54816},{"name":"Acocks Green","type":"suburb","lat":52.44573,"lng":-1.82716},{"name":"Acol","type":"village","lat":51.35614,"lng":1.31277},{"name":"Acomb","type":"suburb","lat":53.95551,"lng":-1.12647},{"name":"Acomb","type":"village","lat":54.9926,"lng":-2.10894},{"name":"Aconbury","type":"settlement","lat":51.99768,"lng":-2.70677},{"name":"Acre","type":"suburb","lat":53.55218,"lng":-2.09701},{"name":"Acre","type":"suburb","lat":55.89907,"lng":-4.30518},{"name":"Acre","type":"village","lat":53.72033,"lng":-2.32413},{"name":"Acre Ridge Estate","type":"settlement","lat":53.1017,"lng":-1.37256},{"name":"Acrefair","type":"village","lat":52.97907,"lng":-3.08049},{"name":"Acres","type":"settlement","lat":53.55834,"lng":-2.16579},{"name":"Acres Nook","type":"suburb","lat":53.07609,"lng":-2.23685},{"name":"Acresford","type":"village","lat":52.71509,"lng":-1.55833},{"name":"Acrise","type":"hamlet","lat":51.13863,"lng":1.13618},{"name":"Acton","type":"hamlet","lat":51.01786,"lng":0.71719},{"name":"Acton","type":"hamlet","lat":52.45835,"lng":-3.01234},{"name":"Acton","type":"settlement","lat":51.50673,"lng":-0.26831},{"name":"Acton","type":"suburb","lat":53.05955,"lng":-2.98349},{"name":"Acton","type":"town","lat":52.07071,"lng":0.76097},{"name":"Acton","type":"village","lat":50.60586,"lng":-2.01699},{"name":"Acton","type":"village","lat":52.30458,"lng":-2.22978},{"name":"Acton","type":"village","lat":52.97,"lng":-2.26454},{"name":"Acton","type":"village","lat":53.07296,"lng":-2.55019},{"name":"Acton Beauchamp","type":"hamlet","lat":52.14849,"lng":-2.47487},{"name":"Acton Bridge","type":"village","lat":53.27354,"lng":-2.60652},{"name":"Acton Burnell","type":"village","lat":52.61393,"lng":-2.69428},{"name":"Acton Gate","type":"settlement","lat":52.77063,"lng":-2.10739},{"name":"Acton Green","type":"hamlet","lat":52.14744,"lng":-2.44274},{"name":"Acton Green","type":"suburb","lat":51.4962,"lng":-0.27036},{"name":"Acton Pigott","type":"hamlet","lat":52.62102,"lng":-2.67733},{"name":"Acton Reynald","type":"hamlet","lat":52.80623,"lng":-2.68488},{"name":"Acton Round","type":"hamlet","lat":52.55677,"lng":-2.53743},{"name":"Acton Scott","type":"hamlet","lat":52.50485,"lng":-2.80559},{"name":"Acton Trussell","type":"village","lat":52.76157,"lng":-2.09514},{"name":"Acton Turville","type":"village","lat":51.52764,"lng":-2.27477},{"name":"Adam's Green","type":"hamlet","lat":50.8661,"lng":-2.64518},{"name":"Adambrae","type":"suburb","lat":55.87658,"lng":-3.53211},{"name":"Adams Street","type":"settlement","lat":52.48505,"lng":-3.98243},{"name":"Adamsdown","type":"suburb","lat":51.48143,"lng":-3.16602},{"name":"Adbaston","type":"village","lat":52.85295,"lng":-2.3481},{"name":"Adber","type":"hamlet","lat":50.97977,"lng":-2.57374},{"name":"Adbolton","type":"suburb","lat":52.93844,"lng":-1.10605},{"name":"Adbury","type":"hamlet","lat":51.36766,"lng":-1.30291},{"name":"Adder's Moss","type":"village","lat":53.28727,"lng":-2.19765},{"name":"Adderbury","type":"village","lat":52.01692,"lng":-1.31175},{"name":"Adderley","type":"village","lat":52.95433,"lng":-2.5037},{"name":"Adderley Green","type":"suburb","lat":52.9999,"lng":-2.12107},{"name":"Addiebrownhill","type":"village","lat":55.84255,"lng":-3.61615},{"name":"Addiewell","type":"village","lat":55.84746,"lng":-3.60835},{"name":"Addingford","type":"suburb","lat":53.65551,"lng":-1.55948},{"name":"Addingham","type":"village","lat":53.944,"lng":-1.88276},{"name":"Addingham Moorside","type":"settlement","lat":53.92614,"lng":-1.88695},{"name":"Addington","type":"hamlet","lat":51.95081,"lng":-0.9201},{"name":"Addington","type":"suburb","lat":50.45996,"lng":-4.45615},{"name":"Addington","type":"suburb","lat":51.35822,"lng":-0.03232},{"name":"Addington","type":"village","lat":51.30488,"lng":0.37828},{"name":"Addiscombe","type":"suburb","lat":51.37731,"lng":-0.07457},{"name":"Addlestead","type":"hamlet","lat":51.21239,"lng":0.37603},{"name":"Addlestone","type":"town","lat":51.37068,"lng":-0.49292},{"name":"Addlestonemoor","type":"suburb","lat":51.38127,"lng":-0.48969},{"name":"Addlethorpe","type":"village","lat":53.19503,"lng":0.31709},{"name":"Adel","type":"suburb","lat":53.85388,"lng":-1.59021},{"name":"Adel East Moor","type":"suburb","lat":53.85126,"lng":-1.57736},{"name":"Adelphi","type":"suburb","lat":53.76618,"lng":-2.70863},{"name":"Adendale","type":"hamlet","lat":57.01968,"lng":-2.55365},{"name":"Adeney","type":"hamlet","lat":52.76294,"lng":-2.44415},{"name":"Adeyfield","type":"suburb","lat":51.75522,"lng":-0.45867},{"name":"Adfa","type":"village","lat":52.59938,"lng":-3.38972},{"name":"Adforton","type":"village","lat":52.33469,"lng":-2.88243},{"name":"Adgestone","type":"village","lat":50.67265,"lng":-1.15953},{"name":"Adisham","type":"village","lat":51.23836,"lng":1.18678},{"name":"Adlestrop","type":"village","lat":51.94126,"lng":-1.64726},{"name":"Adley Moor","type":"hamlet","lat":52.36588,"lng":-2.91265},{"name":"Adlingfleet","type":"village","lat":53.6786,"lng":-0.72468},{"name":"Adlington","type":"town","lat":53.61732,"lng":-2.59735},{"name":"Adlington","type":"village","lat":53.32077,"lng":-2.12929},{"name":"Admaston","type":"hamlet","lat":52.80646,"lng":-1.92681},{"name":"Admaston","type":"suburb","lat":52.71295,"lng":-2.54269},{"name":"Admington","type":"hamlet","lat":52.11593,"lng":-1.7057},{"name":"Adpar","type":"suburb","lat":52.04386,"lng":-4.46603},{"name":"Adsborough","type":"village","lat":51.05711,"lng":-3.03231},{"name":"Adscombe","type":"hamlet","lat":51.1341,"lng":-3.17031},{"name":"Adsdean","type":"hamlet","lat":50.8768,"lng":-0.87075},{"name":"Adstock","type":"village","lat":51.96559,"lng":-0.92772},{"name":"Adstone","type":"village","lat":52.15891,"lng":-1.13145},{"name":"Adswood","type":"suburb","lat":53.3913,"lng":-2.16962},{"name":"Adversane","type":"village","lat":50.99927,"lng":-0.47146},{"name":"Advie","type":"settlement","lat":57.389,"lng":-3.461},{"name":"Adwalton","type":"suburb","lat":53.74951,"lng":-1.66083},{"name":"Adwell","type":"hamlet","lat":51.6904,"lng":-0.99404},{"name":"Adwick le Street","type":"town","lat":53.57186,"lng":-1.18606},{"name":"Adwick upon Dearne","type":"village","lat":53.50948,"lng":-1.2935},{"name":"Ae","type":"village","lat":55.18706,"lng":-3.59601},{"name":"Ae Bridgend","type":"hamlet","lat":55.16528,"lng":-3.55435},{"name":"Affetside","type":"village","lat":53.61778,"lng":-2.37094},{"name":"Affpuddle","type":"village","lat":50.74182,"lng":-2.27622},{"name":"Afon Eitha","type":"suburb","lat":52.99976,"lng":-3.05638},{"name":"Afon Wen","type":"hamlet","lat":52.91276,"lng":-4.32496},{"name":"Afon-wen","type":"village","lat":53.23447,"lng":-3.30292},{"name":"Afton","type":"suburb","lat":50.67762,"lng":-1.50483},{"name":"Afton Bridgend","type":"suburb","lat":55.39439,"lng":-4.17943},{"name":"Agar Nook","type":"suburb","lat":52.72348,"lng":-1.32905},{"name":"Agbrigg","type":"suburb","lat":53.66696,"lng":-1.47836},{"name":"Aggborough","type":"suburb","lat":52.37785,"lng":-2.24438},{"name":"Agglethorpe","type":"hamlet","lat":54.27378,"lng":-1.86784},{"name":"Aglionby","type":"village","lat":54.89969,"lng":-2.86437},{"name":"Ahmore","type":"hamlet","lat":57.64676,"lng":-7.26976},{"name":"Aigburth","type":"suburb","lat":53.36594,"lng":-2.91704},{"name":"Aigburth Vale","type":"suburb","lat":53.37728,"lng":-2.9306},{"name":"Aiginis","type":"village","lat":58.20924,"lng":-6.27963},{"name":"Aike","type":"hamlet","lat":53.89849,"lng":-0.40523},{"name":"Aikerness","type":"hamlet","lat":59.34857,"lng":-2.96198},{"name":"Aikers","type":"settlement","lat":58.80353,"lng":-2.94145},{"name":"Aiketgate","type":"hamlet","lat":54.81242,"lng":-2.81106},{"name":"Aikhead","type":"hamlet","lat":54.83269,"lng":-3.18884},{"name":"Aikrigg","type":"suburb","lat":54.31935,"lng":-2.7311},{"name":"Aikton","type":"village","lat":54.87057,"lng":-3.13185},{"name":"Ailby","type":"hamlet","lat":53.27006,"lng":0.15247},{"name":"Ailscroft","type":"hamlet","lat":52.09122,"lng":-2.43587},{"name":"Ailsworth","type":"village","lat":52.57579,"lng":-0.35292},{"name":"Aimes Green","type":"hamlet","lat":51.7072,"lng":0.02032},{"name":"Ainderby Quernhow","type":"hamlet","lat":54.22309,"lng":-1.46865},{"name":"Ainderby Steeple","type":"village","lat":54.32041,"lng":-1.48305},{"name":"Aingers Green","type":"village","lat":51.84144,"lng":1.07305},{"name":"Ainley Top","type":"suburb","lat":53.67031,"lng":-1.81903},{"name":"Ainsdale","type":"suburb","lat":53.60201,"lng":-3.04043},{"name":"Ainstable","type":"village","lat":54.81015,"lng":-2.7393},{"name":"Ainsworth","type":"village","lat":53.58799,"lng":-2.35791},{"name":"Ainthorpe","type":"village","lat":54.4626,"lng":-0.91421},{"name":"Aintree","type":"village","lat":53.48285,"lng":-2.93647},{"name":"Aird","type":"hamlet","lat":57.03407,"lng":-5.97085},{"name":"Aird","type":"settlement","lat":54.89953,"lng":-4.97039},{"name":"Aird","type":"settlement","lat":56.1453,"lng":-5.59837},{"name":"Aird","type":"settlement","lat":57.47772,"lng":-6.34232},{"name":"Aird","type":"village","lat":58.24737,"lng":-6.16465},{"name":"Aird Tong","type":"village","lat":58.24697,"lng":-6.33216},{"name":"Aird-dhubh","type":"hamlet","lat":57.39972,"lng":-5.81834},{"name":"Airdens","type":"settlement","lat":57.91244,"lng":-4.32099},{"name":"Airdrie","type":"town","lat":55.86604,"lng":-3.98089},{"name":"Airdriehill","type":"settlement","lat":55.8833,"lng":-3.95205},{"name":"Airds","type":"suburb","lat":55.59109,"lng":-5.46823},{"name":"Airds Bay","type":"hamlet","lat":56.44096,"lng":-5.25231},{"name":"Airedale","type":"suburb","lat":53.72485,"lng":-1.31358},{"name":"Aireworth","type":"suburb","lat":53.87423,"lng":-1.89424},{"name":"Airidh a Bhruaich","type":"settlement","lat":58.06239,"lng":-6.66245},{"name":"Airigh Bheagaig","type":"settlement","lat":56.742,"lng":-5.84135},{"name":"Airlie","type":"hamlet","lat":56.6383,"lng":-3.11676},{"name":"Airmyn","type":"village","lat":53.71898,"lng":-0.90283},{"name":"Airntully","type":"hamlet","lat":56.50251,"lng":-3.46484},{"name":"Airor","type":"settlement","lat":57.08336,"lng":-5.76497},{"name":"Airth","type":"village","lat":56.06849,"lng":-3.77018},{"name":"Airton","type":"village","lat":54.02789,"lng":-2.15202},{"name":"Aisby","type":"hamlet","lat":53.42603,"lng":-0.68909},{"name":"Aisby","type":"village","lat":52.9372,"lng":-0.49672},{"name":"Aisgernis","type":"settlement","lat":57.18916,"lng":-7.40527},{"name":"Aish","type":"hamlet","lat":50.41887,"lng":-3.63068},{"name":"Aish","type":"village","lat":50.43084,"lng":-3.84284},{"name":"Aisholt","type":"hamlet","lat":51.11453,"lng":-3.15752},{"name":"Aisig","type":"hamlet","lat":57.24821,"lng":-5.83307},{"name":"Aiskew","type":"village","lat":54.29064,"lng":-1.58761},{"name":"Aislaby","type":"village","lat":54.26104,"lng":-0.81018},{"name":"Aislaby","type":"village","lat":54.4658,"lng":-0.67774},{"name":"Aislaby","type":"village","lat":54.50495,"lng":-1.37688},{"name":"Aisthorpe","type":"village","lat":53.31042,"lng":-0.57702},{"name":"Aith","type":"hamlet","lat":59.11621,"lng":-2.61628},{"name":"Aith","type":"hamlet","lat":60.05153,"lng":-1.20728},{"name":"Aith","type":"hamlet","lat":60.59051,"lng":-0.84923},{"name":"Aith","type":"village","lat":60.28491,"lng":-1.38389},{"name":"Aithsetter","type":"hamlet","lat":60.05666,"lng":-1.21001},{"name":"Akeld","type":"hamlet","lat":55.56113,"lng":-2.06972},{"name":"Akeley","type":"village","lat":52.03123,"lng":-0.96984},{"name":"Akenham","type":"hamlet","lat":52.09457,"lng":1.13315},{"name":"Akroydon","type":"suburb","lat":53.73263,"lng":-1.86569},{"name":"Albany","type":"suburb","lat":54.90705,"lng":-1.53236},{"name":"Albaston","type":"suburb","lat":50.51118,"lng":-4.22552},{"name":"Alberbury","type":"village","lat":52.72264,"lng":-2.95166},{"name":"Albert Hill","type":"suburb","lat":54.53316,"lng":-1.53963},{"name":"Albert Town","type":"suburb","lat":51.80009,"lng":-4.99067},{"name":"Albert Village","type":"suburb","lat":52.75827,"lng":-1.55286},{"name":"Albion","type":"suburb","lat":52.51708,"lng":-2.02199},{"name":"Albourne","type":"village","lat":50.93333,"lng":-0.19963},{"name":"Albourne Green","type":"village","lat":50.93731,"lng":-0.20124},{"name":"Albourne Street","type":"village","lat":50.93377,"lng":-0.2023},{"name":"Albrighton","type":"hamlet","lat":52.76067,"lng":-2.74697},{"name":"Albrighton","type":"village","lat":52.63488,"lng":-2.27835},{"name":"Alburgh","type":"village","lat":52.43147,"lng":1.33895},{"name":"Alburgh Street","type":"village","lat":52.43739,"lng":1.33195},{"name":"Alburne Park","type":"suburb","lat":56.19819,"lng":-3.15079},{"name":"Albury","type":"hamlet","lat":51.74084,"lng":-1.05248},{"name":"Albury","type":"village","lat":51.21882,"lng":-0.49699},{"name":"Albury","type":"village","lat":51.90182,"lng":0.08005},{"name":"Albury End","type":"hamlet","lat":51.89442,"lng":0.07521},{"name":"Albury Heath","type":"hamlet","lat":51.21232,"lng":-0.47864},{"name":"Alby","type":"hamlet","lat":52.84958,"lng":1.29053},{"name":"Alby Hill","type":"village","lat":52.86056,"lng":1.25543},{"name":"Alcaig","type":"village","lat":57.58215,"lng":-4.39879},{"name":"Alcaston","type":"hamlet","lat":52.47959,"lng":-2.80127},{"name":"Alcester","type":"suburb","lat":51.0029,"lng":-2.206},{"name":"Alcester","type":"town","lat":52.21365,"lng":-1.87098},{"name":"Alcester Lane's End","type":"suburb","lat":52.42367,"lng":-1.89297},{"name":"Alciston","type":"village","lat":50.83113,"lng":0.13753},{"name":"Alcombe","type":"hamlet","lat":51.42279,"lng":-2.27565},{"name":"Alcombe","type":"suburb","lat":51.19662,"lng":-3.46691},{"name":"Alconbury","type":"village","lat":52.36883,"lng":-0.26011},{"name":"Alconbury Weald","type":"settlement","lat":52.37353,"lng":-0.22269},{"name":"Alconbury Weston","type":"village","lat":52.37793,"lng":-0.27083},{"name":"Aldborough","type":"village","lat":52.86107,"lng":1.24202},{"name":"Aldborough","type":"village","lat":54.091,"lng":-1.3812},{"name":"Aldborough Hatch","type":"suburb","lat":51.58297,"lng":0.10132},{"name":"Aldbourne","type":"village","lat":51.47884,"lng":-1.62098},{"name":"Aldbrough","type":"village","lat":53.82973,"lng":-0.11277},{"name":"Aldbrough St John","type":"village","lat":54.49762,"lng":-1.68709},{"name":"Aldbury","type":"village","lat":51.80216,"lng":-0.60211},{"name":"Aldcliffe","type":"village","lat":54.03453,"lng":-2.81544},{"name":"Aldclune","type":"hamlet","lat":56.75089,"lng":-3.79817},{"name":"Aldeburgh","type":"town","lat":52.15203,"lng":1.60134},{"name":"Aldeby","type":"village","lat":52.486,"lng":1.60757},{"name":"Aldenham","type":"village","lat":51.67334,"lng":-0.35355},{"name":"Alder Forest","type":"suburb","lat":53.4938,"lng":-2.37547},{"name":"Alder Moor","type":"village","lat":52.84207,"lng":-1.67088},{"name":"Alder Root","type":"suburb","lat":53.53893,"lng":-2.13647},{"name":"Alderbrook","type":"suburb","lat":51.04101,"lng":0.16891},{"name":"Alderbury","type":"village","lat":51.04265,"lng":-1.7317},{"name":"Alderford","type":"hamlet","lat":51.21547,"lng":-3.77252},{"name":"Alderford","type":"hamlet","lat":52.72394,"lng":1.14599},{"name":"Alderholt","type":"village","lat":50.91157,"lng":-1.83778},{"name":"Alderley","type":"hamlet","lat":51.61698,"lng":-2.33596},{"name":"Alderley Edge","type":"village","lat":53.30162,"lng":-2.23616},{"name":"Alderman's Green","type":"suburb","lat":52.44814,"lng":-1.4723},{"name":"Aldermaston","type":"village","lat":51.38189,"lng":-1.15168},{"name":"Aldermaston Soke","type":"village","lat":51.36989,"lng":-1.12077},{"name":"Aldermaston Wharf","type":"village","lat":51.40115,"lng":-1.13788},{"name":"Alderminster","type":"village","lat":52.13649,"lng":-1.66385},{"name":"Aldermoor","type":"suburb","lat":50.93433,"lng":-1.43624},{"name":"Alders","type":"hamlet","lat":52.947,"lng":-1.86694},{"name":"Aldersbrook","type":"suburb","lat":51.56323,"lng":0.02411},{"name":"Aldersey Green","type":"hamlet","lat":53.10521,"lng":-2.80553},{"name":"Aldersey Park","type":"hamlet","lat":53.09942,"lng":-2.80903},{"name":"Aldershot","type":"town","lat":51.24989,"lng":-0.76169},{"name":"Aldersley","type":"suburb","lat":52.60715,"lng":-2.1513},{"name":"Alderton","type":"hamlet","lat":52.80999,"lng":-2.7485},{"name":"Alderton","type":"village","lat":51.54364,"lng":-2.23381},{"name":"Alderton","type":"village","lat":51.99821,"lng":-1.99921},{"name":"Alderton","type":"village","lat":52.02369,"lng":1.41516},{"name":"Alderton","type":"village","lat":52.11395,"lng":-0.92008},{"name":"Alderton Fields","type":"hamlet","lat":51.98852,"lng":-2.00017},{"name":"Alderwasley","type":"village","lat":53.07848,"lng":-1.52873},{"name":"Alderwood Terrace","type":"settlement","lat":51.60931,"lng":0.14142},{"name":"Aldfield","type":"hamlet","lat":54.12037,"lng":-1.59424},{"name":"Aldford","type":"village","lat":53.12856,"lng":-2.86994},{"name":"Aldham","type":"village","lat":51.89786,"lng":0.78606},{"name":"Aldham","type":"village","lat":52.06328,"lng":0.97133},{"name":"Aldie","type":"hamlet","lat":57.44868,"lng":-1.88767},{"name":"Aldingbourne","type":"village","lat":50.84068,"lng":-0.68716},{"name":"Aldingham","type":"hamlet","lat":54.1303,"lng":-3.09863},{"name":"Aldington","type":"village","lat":51.0881,"lng":0.93973},{"name":"Aldington","type":"village","lat":52.095,"lng":-1.90852},{"name":"Aldington Frith","type":"village","lat":51.09469,"lng":0.91838},{"name":"Aldochlay","type":"hamlet","lat":56.08633,"lng":-4.63688},{"name":"Aldon","type":"hamlet","lat":52.41172,"lng":-2.83032},{"name":"Aldoth","type":"hamlet","lat":54.8257,"lng":-3.33472},{"name":"Aldreth","type":"village","lat":52.33991,"lng":0.12041},{"name":"Aldridge","type":"town","lat":52.60541,"lng":-1.91722},{"name":"Aldringham","type":"village","lat":52.19328,"lng":1.57759},{"name":"Aldrington","type":"suburb","lat":50.83103,"lng":-0.19374},{"name":"Aldroughty","type":"hamlet","lat":57.64437,"lng":-3.36781},{"name":"Aldsworth","type":"hamlet","lat":50.87331,"lng":-0.91619},{"name":"Aldsworth","type":"village","lat":51.78934,"lng":-1.7769},{"name":"Aldwark","type":"hamlet","lat":53.1127,"lng":-1.65937},{"name":"Aldwark","type":"village","lat":54.06593,"lng":-1.28936},{"name":"Aldwarke","type":"suburb","lat":53.44843,"lng":-1.32559},{"name":"Aldwick","type":"hamlet","lat":51.34579,"lng":-2.72835},{"name":"Aldwick","type":"suburb","lat":50.78234,"lng":-0.70782},{"name":"Aldwincle","type":"village","lat":52.42577,"lng":-0.52341},{"name":"Aldworth","type":"hamlet","lat":51.51315,"lng":-1.2012},{"name":"Alexandra Park","type":"suburb","lat":51.59899,"lng":-0.13688},{"name":"Alexandra Park","type":"suburb","lat":52.97112,"lng":-1.13827},{"name":"Alexandria","type":"town","lat":55.98795,"lng":-4.58236},{"name":"Aley","type":"hamlet","lat":51.13641,"lng":-3.16208},{"name":"Aley Green","type":"village","lat":51.85388,"lng":-0.44646},{"name":"Alfardisworthy","type":"hamlet","lat":50.87887,"lng":-4.42618},{"name":"Alfington","type":"village","lat":50.77455,"lng":-3.25641},{"name":"Alfold","type":"village","lat":51.09574,"lng":-0.5188},{"name":"Alfold Bars","type":"village","lat":51.08965,"lng":-0.52088},{"name":"Alfold Crossways","type":"village","lat":51.1056,"lng":-0.51593},{"name":"Alford","type":"town","lat":57.2319,"lng":-2.70206},{"name":"Alford","type":"village","lat":51.0879,"lng":-2.56539},{"name":"Alford","type":"village","lat":53.26156,"lng":0.17932},{"name":"Alfreton","type":"town","lat":53.09753,"lng":-1.38761},{"name":"Alfrick","type":"village","lat":52.17628,"lng":-2.36916},{"name":"Alfrick Pound","type":"hamlet","lat":52.16663,"lng":-2.37615},{"name":"Alfriston","type":"village","lat":50.80911,"lng":0.15581},{"name":"Algarkirk","type":"village","lat":52.89953,"lng":-0.07993},{"name":"Alhampton","type":"village","lat":51.11146,"lng":-2.53297},{"name":"Alkborough","type":"village","lat":53.68734,"lng":-0.66221},{"name":"Alkerton","type":"village","lat":52.08264,"lng":-1.45038},{"name":"Alkham","type":"village","lat":51.13581,"lng":1.22396},{"name":"Alkington","type":"hamlet","lat":52.9492,"lng":-2.6993},{"name":"Alkmonton","type":"hamlet","lat":52.94387,"lng":-1.72372},{"name":"Alkrington Garden Village","type":"suburb","lat":53.53744,"lng":-2.19625},{"name":"All Cannings","type":"village","lat":51.35655,"lng":-1.89743},{"name":"All Saints","type":"suburb","lat":52.49271,"lng":-1.92219},{"name":"All Saints","type":"village","lat":50.80818,"lng":-2.98222},{"name":"All Saints' South Elmham","type":"village","lat":52.39088,"lng":1.43968},{"name":"All Stretton","type":"village","lat":52.55586,"lng":-2.79733},{"name":"Allaleigh","type":"hamlet","lat":50.37098,"lng":-3.6759},{"name":"Allandale","type":"village","lat":55.9859,"lng":-3.92631},{"name":"Allanton","type":"village","lat":55.76527,"lng":-4.00229},{"name":"Allanton","type":"village","lat":55.78359,"lng":-2.21703},{"name":"Allanton","type":"village","lat":55.80031,"lng":-3.83394},{"name":"Allardice","type":"hamlet","lat":56.86253,"lng":-2.29744},{"name":"Allaston","type":"suburb","lat":51.74109,"lng":-2.52515},{"name":"Allathasdal","type":"hamlet","lat":56.99652,"lng":-7.50383},{"name":"Allbrook","type":"suburb","lat":50.99469,"lng":-1.35076},{"name":"Allen End","type":"hamlet","lat":52.56708,"lng":-1.75703},{"name":"Allen's Green","type":"suburb","lat":53.06946,"lng":-1.30399},{"name":"Allen's Green","type":"village","lat":51.8309,"lng":0.10972},{"name":"Allendale Town","type":"village","lat":54.89703,"lng":-2.25372},{"name":"Allenheads","type":"village","lat":54.80254,"lng":-2.21984},{"name":"Allensford","type":"hamlet","lat":54.84622,"lng":-1.88001},{"name":"Allensmore","type":"hamlet","lat":52.02038,"lng":-2.77785},{"name":"Allenwood","type":"hamlet","lat":54.89487,"lng":-2.79725},{"name":"Aller","type":"hamlet","lat":50.82617,"lng":-2.33228},{"name":"Aller","type":"hamlet","lat":50.85093,"lng":-3.34641},{"name":"Aller","type":"village","lat":51.05918,"lng":-2.85802},{"name":"Aller Park","type":"suburb","lat":50.52069,"lng":-3.58096},{"name":"Allerby","type":"village","lat":54.74225,"lng":-3.41693},{"name":"Allercombe","type":"hamlet","lat":50.74299,"lng":-3.34862},{"name":"Allerdene","type":"suburb","lat":54.92179,"lng":-1.59633},{"name":"Allerford","type":"hamlet","lat":51.01957,"lng":-3.17164},{"name":"Allerford","type":"village","lat":51.21087,"lng":-3.56884},{"name":"Allerston","type":"village","lat":54.23098,"lng":-0.65287},{"name":"Allerthorpe","type":"village","lat":53.91595,"lng":-0.80909},{"name":"Allerton","type":"suburb","lat":53.36858,"lng":-2.88869},{"name":"Allerton","type":"suburb","lat":53.80312,"lng":-1.81744},{"name":"Allerton Bywater","type":"village","lat":53.74542,"lng":-1.36843},{"name":"Allerton Mauleverer","type":"village","lat":54.01456,"lng":-1.36702},{"name":"Allesley","type":"suburb","lat":52.43042,"lng":-1.56933},{"name":"Allesley Green","type":"suburb","lat":52.4209,"lng":-1.57406},{"name":"Allestree","type":"suburb","lat":52.95176,"lng":-1.49151},{"name":"Allexton","type":"hamlet","lat":52.59547,"lng":-0.793},{"name":"Alleytroyds","type":"suburb","lat":53.75136,"lng":-2.39137},{"name":"Allgreave","type":"settlement","lat":53.19953,"lng":-2.04144},{"name":"Allhallows","type":"village","lat":51.46982,"lng":0.64544},{"name":"Allhallows-on-Sea","type":"village","lat":51.47347,"lng":0.65222},{"name":"Allimore Green","type":"hamlet","lat":52.76805,"lng":-2.2187},{"name":"Allington","type":"hamlet","lat":51.36758,"lng":-1.90167},{"name":"Allington","type":"hamlet","lat":51.47689,"lng":-2.15516},{"name":"Allington","type":"suburb","lat":50.73723,"lng":-2.76447},{"name":"Allington","type":"suburb","lat":51.28663,"lng":0.49688},{"name":"Allington","type":"village","lat":51.15303,"lng":-1.70804},{"name":"Allington","type":"village","lat":52.95236,"lng":-0.72599},{"name":"Allington Bar","type":"hamlet","lat":51.47005,"lng":-2.15109},{"name":"Allithwaite","type":"village","lat":54.18211,"lng":-2.94108},{"name":"Alloa","type":"town","lat":56.11603,"lng":-3.79174},{"name":"Allonby","type":"village","lat":54.77094,"lng":-3.43051},{"name":"Allostock","type":"village","lat":53.23684,"lng":-2.38646},{"name":"Alloway","type":"suburb","lat":55.43102,"lng":-4.63604},{"name":"Allowenshay","type":"hamlet","lat":50.916,"lng":-2.86541},{"name":"Allscott","type":"settlement","lat":52.5629,"lng":-2.3884},{"name":"Allscott","type":"village","lat":52.71069,"lng":-2.57518},{"name":"Allt","type":"village","lat":51.70131,"lng":-4.08856},{"name":"Allt a' Chruinn","type":"hamlet","lat":57.22782,"lng":-5.40316},{"name":"Allt nan Sùgh","type":"hamlet","lat":57.31118,"lng":-5.48403},{"name":"Allt-yr-yn","type":"suburb","lat":51.59103,"lng":-3.00873},{"name":"Alltami","type":"village","lat":53.17887,"lng":-3.09215},{"name":"Alltan an t-Salainn","type":"suburb","lat":57.69958,"lng":-4.14112},{"name":"Alltmawr","type":"settlement","lat":52.11279,"lng":-3.35498},{"name":"Alltnacaillich","type":"settlement","lat":58.37069,"lng":-4.63727},{"name":"Alltsigh","type":"hamlet","lat":57.23648,"lng":-4.55811},{"name":"Alltwalis","type":"village","lat":51.96246,"lng":-4.26391},{"name":"Alltwen","type":"village","lat":51.71431,"lng":-3.84489},{"name":"Alltyblaca","type":"village","lat":52.08471,"lng":-4.16026},{"name":"Allum Green","type":"hamlet","lat":50.86199,"lng":-1.60432},{"name":"Allwood Green","type":"hamlet","lat":52.31101,"lng":1.00911},{"name":"Alma","type":"suburb","lat":53.0651,"lng":-1.29892},{"name":"Almeley","type":"village","lat":52.15891,"lng":-2.97102},{"name":"Almeley Wootton","type":"hamlet","lat":52.16684,"lng":-2.97689},{"name":"Almer","type":"hamlet","lat":50.78974,"lng":-2.12489},{"name":"Almholme","type":"hamlet","lat":53.56615,"lng":-1.10962},{"name":"Almington","type":"hamlet","lat":52.90872,"lng":-2.44466},{"name":"Alminstone Cross","type":"hamlet","lat":50.95665,"lng":-4.35382},{"name":"Almodington","type":"village","lat":50.77248,"lng":-0.82945},{"name":"Almondbank","type":"village","lat":56.41962,"lng":-3.51659},{"name":"Almondbury","type":"suburb","lat":53.63541,"lng":-1.74839},{"name":"Almondbury Common","type":"suburb","lat":53.6256,"lng":-1.75035},{"name":"Almondhill","type":"hamlet","lat":55.9587,"lng":-3.3931},{"name":"Almondsbury","type":"village","lat":51.55457,"lng":-2.57372},{"name":"Almondvale","type":"suburb","lat":55.88265,"lng":-3.51406},{"name":"Almshouse Common","type":"suburb","lat":51.08609,"lng":-0.68771},{"name":"Almshouse Green","type":"hamlet","lat":52.14618,"lng":0.83108},{"name":"Almshouse Green","type":"settlement","lat":51.9708,"lng":0.55626},{"name":"Alne","type":"village","lat":54.08306,"lng":-1.24148},{"name":"Alne End","type":"village","lat":52.23146,"lng":-1.83588},{"name":"Alness","type":"town","lat":57.6955,"lng":-4.24973},{"name":"Alnessferry","type":"hamlet","lat":57.66472,"lng":-4.24035},{"name":"Alnham","type":"hamlet","lat":55.39196,"lng":-2.00826},{"name":"Alnmouth","type":"village","lat":55.38958,"lng":-1.61285},{"name":"Alnwick","type":"town","lat":55.41162,"lng":-1.70563},{"name":"Alnwickhill","type":"suburb","lat":55.90691,"lng":-3.16713},{"name":"Alperton","type":"suburb","lat":51.54202,"lng":-0.29576},{"name":"Alphamstone","type":"village","lat":51.98486,"lng":0.73194},{"name":"Alpheton","type":"village","lat":52.12726,"lng":0.75053},{"name":"Alphington","type":"suburb","lat":50.69964,"lng":-3.53362},{"name":"Alpington","type":"village","lat":52.56152,"lng":1.386},{"name":"Alport","type":"hamlet","lat":52.54985,"lng":-3.07275},{"name":"Alport","type":"hamlet","lat":53.17782,"lng":-1.66963},{"name":"Alpraham","type":"village","lat":53.13126,"lng":-2.61906},{"name":"Alresford","type":"village","lat":51.85276,"lng":0.9977},{"name":"Alrewas","type":"village","lat":52.73275,"lng":-1.74937},{"name":"Alsager","type":"town","lat":53.09607,"lng":-2.30472},{"name":"Alsagers Bank","type":"village","lat":53.03133,"lng":-2.2914},{"name":"Alscot","type":"hamlet","lat":51.73289,"lng":-0.83872},{"name":"Alsop en le Dale","type":"hamlet","lat":53.09331,"lng":-1.76223},{"name":"Alston","type":"hamlet","lat":50.81883,"lng":-2.98495},{"name":"Alston","type":"town","lat":54.8125,"lng":-2.44138},{"name":"Alston Sutton","type":"settlement","lat":51.26004,"lng":-2.8405},{"name":"Alstone","type":"suburb","lat":51.90122,"lng":-2.09284},{"name":"Alstone","type":"village","lat":51.21645,"lng":-2.98298},{"name":"Alstone","type":"village","lat":51.9921,"lng":-2.02561},{"name":"Alstonefield","type":"village","lat":53.09835,"lng":-1.80738},{"name":"Alswear","type":"hamlet","lat":50.98478,"lng":-3.81819},{"name":"Alt","type":"suburb","lat":53.52489,"lng":-2.08473},{"name":"Alt Hill","type":"hamlet","lat":53.51409,"lng":-2.08507},{"name":"Altandhu","type":"settlement","lat":58.05668,"lng":-5.41868},{"name":"Altarnun","type":"village","lat":50.60408,"lng":-4.51222},{"name":"Altens","type":"suburb","lat":57.1156,"lng":-2.07818},{"name":"Alterwall","type":"settlement","lat":58.56296,"lng":-3.22672},{"name":"Altham","type":"village","lat":53.7896,"lng":-2.34731},{"name":"Althorne","type":"village","lat":51.66331,"lng":0.7588},{"name":"Althorpe","type":"village","lat":53.57499,"lng":-0.74455},{"name":"Altnaharra","type":"hamlet","lat":58.28122,"lng":-4.44276},{"name":"Altofts","type":"suburb","lat":53.70783,"lng":-1.43613},{"name":"Alton","type":"hamlet","lat":51.21893,"lng":-1.78158},{"name":"Alton","type":"town","lat":51.14864,"lng":-0.97584},{"name":"Alton","type":"village","lat":52.9773,"lng":-1.89325},{"name":"Alton","type":"village","lat":53.17437,"lng":-1.45871},{"name":"Alton Barnes","type":"village","lat":51.35737,"lng":-1.85046},{"name":"Alton Pancras","type":"village","lat":50.81934,"lng":-2.4267},{"name":"Alton Priors","type":"village","lat":51.35997,"lng":-1.84258},{"name":"Altonhill","type":"suburb","lat":55.61933,"lng":-4.50289},{"name":"Altonside","type":"hamlet","lat":57.59846,"lng":-3.18461},{"name":"Altrincham","type":"town","lat":53.38809,"lng":-2.35146},{"name":"Alturlie","type":"hamlet","lat":57.51777,"lng":-4.14678},{"name":"Alum Chine","type":"suburb","lat":50.71446,"lng":-1.90397},{"name":"Alum Rock","type":"suburb","lat":52.48649,"lng":-1.82486},{"name":"Alum Waters","type":"hamlet","lat":54.76752,"lng":-1.63665},{"name":"Alva","type":"town","lat":56.15297,"lng":-3.80272},{"name":"Alvanley","type":"village","lat":53.26147,"lng":-2.75598},{"name":"Alvaston","type":"suburb","lat":52.89529,"lng":-1.42696},{"name":"Alvechurch","type":"village","lat":52.35174,"lng":-1.95955},{"name":"Alvecote","type":"village","lat":52.63705,"lng":-1.63114},{"name":"Alvediston","type":"hamlet","lat":51.01012,"lng":-2.03471},{"name":"Alveley","type":"village","lat":52.45713,"lng":-2.35439},{"name":"Alverdiscott","type":"hamlet","lat":51.00644,"lng":-4.11245},{"name":"Alverstoke","type":"suburb","lat":50.78689,"lng":-1.15015},{"name":"Alverstone","type":"village","lat":50.66583,"lng":-1.18473},{"name":"Alverstone Garden Village","type":"village","lat":50.66526,"lng":-1.1915},{"name":"Alverthorpe","type":"suburb","lat":53.69146,"lng":-1.53516},{"name":"Alverton","type":"hamlet","lat":52.97228,"lng":-0.8193},{"name":"Alverton","type":"suburb","lat":50.11514,"lng":-5.55205},{"name":"Alves","type":"village","lat":57.64077,"lng":-3.45488},{"name":"Alvescot","type":"village","lat":51.7387,"lng":-1.60811},{"name":"Alveston","type":"village","lat":51.58964,"lng":-2.53188},{"name":"Alveston","type":"village","lat":52.20636,"lng":-1.65817},{"name":"Alveston Down","type":"suburb","lat":51.5914,"lng":-2.53708},{"name":"Alvie","type":"settlement","lat":57.15829,"lng":-3.87837},{"name":"Alvingham","type":"village","lat":53.40126,"lng":0.0481},{"name":"Alvington","type":"suburb","lat":50.94295,"lng":-2.67663},{"name":"Alvington","type":"village","lat":51.70612,"lng":-2.5768},{"name":"Alwalton","type":"suburb","lat":52.54881,"lng":-0.32912},{"name":"Alway","type":"suburb","lat":51.58735,"lng":-2.95568},{"name":"Alweston","type":"village","lat":50.9272,"lng":-2.47874},{"name":"Alwington","type":"hamlet","lat":50.98647,"lng":-4.27381},{"name":"Alwinton","type":"hamlet","lat":55.35088,"lng":-2.12582},{"name":"Alwoodley","type":"suburb","lat":53.85169,"lng":-1.54086},{"name":"Alwoodley Gates","type":"suburb","lat":53.86185,"lng":-1.52695},{"name":"Alwoodley Park","type":"suburb","lat":53.86258,"lng":-1.55789},{"name":"Alyth","type":"town","lat":56.62191,"lng":-3.22975},{"name":"Am Blàran Odhar","type":"village","lat":58.52627,"lng":-4.22178},{"name":"Am Ploc","type":"village","lat":57.33405,"lng":-5.66538},{"name":"Amatnatua","type":"hamlet","lat":57.88709,"lng":-4.55369},{"name":"Ambaston","type":"village","lat":52.88717,"lng":-1.36416},{"name":"Amber Hill","type":"village","lat":53.00054,"lng":-0.15664},{"name":"Ambergate","type":"village","lat":53.06072,"lng":-1.48144},{"name":"Amberley","type":"settlement","lat":52.12662,"lng":-2.66731},{"name":"Amberley","type":"village","lat":50.90036,"lng":-0.53964},{"name":"Amberley","type":"village","lat":51.70682,"lng":-2.21732},{"name":"Amble","type":"town","lat":55.33359,"lng":-1.58429},{"name":"Amblecote","type":"suburb","lat":52.46452,"lng":-2.14684},{"name":"Ambleside","type":"town","lat":54.4326,"lng":-2.96312},{"name":"Ambleston","type":"village","lat":51.89522,"lng":-4.90609},{"name":"Ambrosden","type":"village","lat":51.86989,"lng":-1.12341},{"name":"Amcotts","type":"village","lat":53.6167,"lng":-0.71069},{"name":"Amen Corner","type":"suburb","lat":51.4125,"lng":-0.78752},{"name":"America Moor","type":"suburb","lat":53.73246,"lng":-1.60479},{"name":"Amersham","type":"town","lat":51.67686,"lng":-0.60764},{"name":"Amersham Common","type":"suburb","lat":51.67122,"lng":-0.59573},{"name":"Amersham Old Town","type":"suburb","lat":51.66686,"lng":-0.61875},{"name":"Amersham on the Hill","type":"suburb","lat":51.67609,"lng":-0.60333},{"name":"Amerton","type":"hamlet","lat":52.8463,"lng":-2.00967},{"name":"Amesbury","type":"hamlet","lat":51.32641,"lng":-2.49633},{"name":"Amesbury","type":"town","lat":51.1719,"lng":-1.78052},{"name":"Ameysford","type":"suburb","lat":50.81969,"lng":-1.90211},{"name":"Amhuinnsuidhe","type":"hamlet","lat":57.96225,"lng":-6.99368},{"name":"Amington","type":"suburb","lat":52.6305,"lng":-1.66056},{"name":"Amisfield","type":"village","lat":55.12913,"lng":-3.57114},{"name":"Amlwch","type":"town","lat":53.41016,"lng":-4.34565},{"name":"Amlwch Port","type":"suburb","lat":53.41196,"lng":-4.33383},{"name":"Ammanford","type":"town","lat":51.79284,"lng":-3.98808},{"name":"Ammerham","type":"hamlet","lat":50.84928,"lng":-2.90156},{"name":"Amotherby","type":"village","lat":54.15136,"lng":-0.85373},{"name":"Ampfield","type":"village","lat":51.00638,"lng":-1.43441},{"name":"Ampleforth","type":"village","lat":54.20103,"lng":-1.10784},{"name":"Ampney Crucis","type":"village","lat":51.71498,"lng":-1.90532},{"name":"Ampney St Mary","type":"village","lat":51.71744,"lng":-1.87606},{"name":"Ampney St Peter","type":"village","lat":51.71167,"lng":-1.88369},{"name":"Amport","type":"village","lat":51.19676,"lng":-1.56922},{"name":"Ampthill","type":"town","lat":52.03174,"lng":-0.49313},{"name":"Ampton","type":"hamlet","lat":52.3085,"lng":0.73677},{"name":"Amroth","type":"village","lat":51.73296,"lng":-4.65514},{"name":"Amulree","type":"hamlet","lat":56.51048,"lng":-3.78994},{"name":"Amwell","type":"hamlet","lat":51.80484,"lng":-0.30845},{"name":"An Acha Mor","type":"village","lat":58.16731,"lng":-6.56214},{"name":"An Cárn Dubh","type":"village","lat":56.25506,"lng":-4.93877},{"name":"An Druim Beag","type":"village","lat":58.2423,"lng":-5.20002},{"name":"An Dùnan","type":"hamlet","lat":57.27685,"lng":-6.00496},{"name":"An Fasadh Feàrna","type":"settlement","lat":56.85493,"lng":-5.25524},{"name":"An Fhadail Dubh","type":"hamlet","lat":56.76249,"lng":-5.85272},{"name":"An Garadh Fada","type":"suburb","lat":57.62644,"lng":-6.20625},{"name":"An Gearasdan","type":"town","lat":56.81963,"lng":-5.10599},{"name":"An Gearraidh Mòr","type":"hamlet","lat":57.37727,"lng":-6.46734},{"name":"An Leth-Pheighinn","type":"suburb","lat":57.44789,"lng":-6.70726},{"name":"An Lethallt","type":"settlement","lat":57.56918,"lng":-6.17038},{"name":"An Luirg","type":"village","lat":58.0238,"lng":-4.39945},{"name":"An Saìlean","type":"village","lat":56.71719,"lng":-5.77802},{"name":"An Sruthan","type":"hamlet","lat":57.3561,"lng":-6.42008},{"name":"An Tairbeart","type":"village","lat":55.86335,"lng":-5.41581},{"name":"An Tairbeart","type":"village","lat":56.20376,"lng":-4.71614},{"name":"An Teanga","type":"village","lat":57.1122,"lng":-5.85887},{"name":"An t-Aodann Ban","type":"settlement","lat":57.4749,"lng":-6.42616},{"name":"An t-Ob","type":"village","lat":57.76662,"lng":-7.02101},{"name":"An t-Ollach","type":"hamlet","lat":57.35128,"lng":-6.13134},{"name":"An t-Àth Leathann","type":"village","lat":57.2418,"lng":-5.91113},{"name":"An t-Òrd","type":"hamlet","lat":57.14704,"lng":-5.93971},{"name":"An Àird Dhorcha","type":"hamlet","lat":57.28458,"lng":-6.01502},{"name":"An Àrd","type":"suburb","lat":57.7123,"lng":-5.68041},{"name":"Anaheilt","type":"suburb","lat":56.70841,"lng":-5.56258},{"name":"Ancaster","type":"village","lat":52.98411,"lng":-0.53516},{"name":"Anchor","type":"hamlet","lat":52.46116,"lng":-3.21761},{"name":"Anchor","type":"suburb","lat":53.71243,"lng":-2.47902},{"name":"Anchor Corner","type":"hamlet","lat":52.54254,"lng":0.95498},{"name":"Anchorage Hill","type":"suburb","lat":54.40502,"lng":-1.72657},{"name":"Anchorage Park","type":"suburb","lat":50.82683,"lng":-1.05248},{"name":"Anchorsholme","type":"suburb","lat":53.87165,"lng":-3.03338},{"name":"Ancoats","type":"suburb","lat":53.48116,"lng":-2.22787},{"name":"Ancroft","type":"hamlet","lat":55.69994,"lng":-2.00123},{"name":"Ancrum","type":"village","lat":55.51369,"lng":-2.5911},{"name":"Ancton","type":"suburb","lat":50.7954,"lng":-0.60762},{"name":"Ancumtoun","type":"settlement","lat":59.37883,"lng":-2.42072},{"name":"Anderby","type":"village","lat":53.2562,"lng":0.2939},{"name":"Anderby Creek","type":"village","lat":53.25956,"lng":0.32107},{"name":"Andersea","type":"hamlet","lat":51.09547,"lng":-2.95771},{"name":"Anderson","type":"village","lat":50.77553,"lng":-2.17225},{"name":"Anderston","type":"suburb","lat":55.86309,"lng":-4.27251},{"name":"Anderton","type":"suburb","lat":53.27582,"lng":-2.54083},{"name":"Anderton","type":"suburb","lat":53.6178,"lng":-2.59674},{"name":"Andertons Mill","type":"village","lat":53.62228,"lng":-2.73737},{"name":"Andover","type":"town","lat":51.2075,"lng":-1.47919},{"name":"Andover Down","type":"village","lat":51.21301,"lng":-1.43612},{"name":"Andoversford","type":"village","lat":51.87517,"lng":-1.96596},{"name":"Andrew's Hill","type":"suburb","lat":51.00778,"lng":-0.46369},{"name":"Andwell","type":"hamlet","lat":51.26861,"lng":-1.01479},{"name":"Anelog","type":"settlement","lat":52.81722,"lng":-4.74112},{"name":"Anerley","type":"suburb","lat":51.412,"lng":-0.06572},{"name":"Anfield","type":"suburb","lat":53.43225,"lng":-2.95393},{"name":"Angarrack","type":"village","lat":50.19477,"lng":-5.38606},{"name":"Angersleigh","type":"hamlet","lat":50.96324,"lng":-3.14306},{"name":"Angerton","type":"village","lat":54.90241,"lng":-3.20435},{"name":"Angle","type":"village","lat":51.68484,"lng":-5.09169},{"name":"Anglefield Corner","type":"village","lat":51.20507,"lng":-0.0576},{"name":"Angmering","type":"village","lat":50.8292,"lng":-0.48351},{"name":"Angram","type":"hamlet","lat":53.93104,"lng":-1.20958},{"name":"Angram","type":"hamlet","lat":54.39335,"lng":-2.17443},{"name":"Anick","type":"hamlet","lat":54.98393,"lng":-2.07383},{"name":"Anlaby","type":"village","lat":53.74513,"lng":-0.43223},{"name":"Anlaby Common","type":"suburb","lat":53.74409,"lng":-0.41019},{"name":"Anlaby Park","type":"suburb","lat":53.73997,"lng":-0.41018},{"name":"Anmer","type":"village","lat":52.83465,"lng":0.58399},{"name":"Anmore","type":"hamlet","lat":50.90095,"lng":-1.04926},{"name":"Anna Valley","type":"village","lat":51.19356,"lng":-1.50803},{"name":"Annan","type":"town","lat":54.98732,"lng":-3.2618},{"name":"Annaside","type":"settlement","lat":54.26732,"lng":-3.39701},{"name":"Annat","type":"hamlet","lat":56.35067,"lng":-5.18032},{"name":"Annat","type":"hamlet","lat":57.5292,"lng":-5.52491},{"name":"Annathill","type":"village","lat":55.91054,"lng":-4.03835},{"name":"Annbank","type":"village","lat":55.47715,"lng":-4.52044},{"name":"Annesley","type":"suburb","lat":53.07565,"lng":-1.23378},{"name":"Annesley Lane End","type":"suburb","lat":53.07087,"lng":-1.28971},{"name":"Annesley Woodhouse","type":"village","lat":53.07617,"lng":-1.2575},{"name":"Annesons Corner","type":"hamlet","lat":52.24571,"lng":1.55482},{"name":"Annfield Plain","type":"town","lat":54.86343,"lng":-1.74506},{"name":"Anniesland","type":"suburb","lat":55.89005,"lng":-4.32787},{"name":"Annishader","type":"hamlet","lat":57.47662,"lng":-6.29144},{"name":"Annitsford","type":"suburb","lat":55.06479,"lng":-1.58694},{"name":"Annochie","type":"settlement","lat":57.47231,"lng":-2.10757},{"name":"Annscroft","type":"village","lat":52.66194,"lng":-2.81636},{"name":"Ansdell","type":"suburb","lat":53.74684,"lng":-2.99245},{"name":"Ansdore","type":"hamlet","lat":51.20082,"lng":1.03505},{"name":"Ansells End","type":"hamlet","lat":51.85724,"lng":-0.31841},{"name":"Ansford","type":"suburb","lat":51.09382,"lng":-2.51504},{"name":"Ansley","type":"village","lat":52.52639,"lng":-1.56552},{"name":"Ansley Common","type":"suburb","lat":52.53804,"lng":-1.53434},{"name":"Anslow","type":"village","lat":52.8253,"lng":-1.68663},{"name":"Anslow Common","type":"hamlet","lat":52.81676,"lng":-1.69671},{"name":"Anslow Gate","type":"hamlet","lat":52.82242,"lng":-1.70934},{"name":"Ansteadbrook","type":"hamlet","lat":51.08485,"lng":-0.67448},{"name":"Anstey","type":"suburb","lat":51.15745,"lng":-0.96209},{"name":"Anstey","type":"village","lat":51.97796,"lng":0.04551},{"name":"Anstey","type":"village","lat":52.673,"lng":-1.18767},{"name":"Anstruther","type":"town","lat":56.22486,"lng":-2.69652},{"name":"Anstruther Easter","type":"suburb","lat":56.22279,"lng":-2.70053},{"name":"Anstruther Wester","type":"suburb","lat":56.22207,"lng":-2.70429},{"name":"Ansty","type":"village","lat":50.82511,"lng":-2.33779},{"name":"Ansty","type":"village","lat":50.99169,"lng":-0.15994},{"name":"Ansty","type":"village","lat":51.03966,"lng":-2.06499},{"name":"Ansty","type":"village","lat":52.44597,"lng":-1.41705},{"name":"Ansty Cross","type":"hamlet","lat":50.8315,"lng":-2.32882},{"name":"Anthill Common","type":"suburb","lat":50.91039,"lng":-1.08585},{"name":"Anthorn","type":"village","lat":54.91221,"lng":-3.25747},{"name":"Antingham","type":"village","lat":52.84628,"lng":1.34555},{"name":"Anton's Gowt","type":"village","lat":53.01064,"lng":-0.07053},{"name":"Antonshill","type":"suburb","lat":56.03553,"lng":-3.81352},{"name":"Antony","type":"village","lat":50.36864,"lng":-4.25125},{"name":"Antony Passage","type":"hamlet","lat":50.39494,"lng":-4.23257},{"name":"Antrobus","type":"village","lat":53.31356,"lng":-2.53718},{"name":"Antron","type":"hamlet","lat":50.15872,"lng":-5.13515},{"name":"Anvil Green","type":"hamlet","lat":51.20671,"lng":1.01507},{"name":"Anwick","type":"village","lat":53.04083,"lng":-0.33892},{"name":"Anwoth","type":"hamlet","lat":54.88062,"lng":-4.21115},{"name":"Aonachan","type":"settlement","lat":56.88842,"lng":-4.94493},{"name":"Apedale","type":"hamlet","lat":53.03868,"lng":-2.27965},{"name":"Apes Dale","type":"hamlet","lat":52.3545,"lng":-2.01891},{"name":"Apethorpe","type":"village","lat":52.54984,"lng":-0.49238},{"name":"Apeton","type":"hamlet","lat":52.76185,"lng":-2.22101},{"name":"Apley","type":"hamlet","lat":53.26174,"lng":-0.33704},{"name":"Apperknowle","type":"village","lat":53.29793,"lng":-1.43005},{"name":"Apperley","type":"village","lat":51.95361,"lng":-2.20198},{"name":"Apperley Bridge","type":"suburb","lat":53.83725,"lng":-1.71396},{"name":"Appersett","type":"hamlet","lat":54.31138,"lng":-2.22002},{"name":"Appietown","type":"suburb","lat":59.04152,"lng":-3.19246},{"name":"Appin","type":"village","lat":56.56244,"lng":-5.35973},{"name":"Appleby","type":"village","lat":53.62315,"lng":-0.56165},{"name":"Appleby Magna","type":"village","lat":52.6849,"lng":-1.53089},{"name":"Appleby Parva","type":"hamlet","lat":52.67765,"lng":-1.5445},{"name":"Appleby Yard","type":"settlement","lat":51.49991,"lng":0.00524},{"name":"Appleby-in-Westmorland","type":"town","lat":54.57776,"lng":-2.49126},{"name":"Applecross","type":"village","lat":57.43361,"lng":-5.81317},{"name":"Appledore","type":"hamlet","lat":50.9222,"lng":-3.32799},{"name":"Appledore","type":"village","lat":51.02994,"lng":0.78914},{"name":"Appledore","type":"village","lat":51.053,"lng":-4.19152},{"name":"Appledore Heath","type":"village","lat":51.04587,"lng":0.78232},{"name":"Appleford-on-Thames","type":"village","lat":51.63888,"lng":-1.24028},{"name":"Applegarth","type":"hamlet","lat":54.41016,"lng":-1.8022},{"name":"Applemore","type":"hamlet","lat":50.8638,"lng":-1.43445},{"name":"Appleshaw","type":"village","lat":51.23576,"lng":-1.56083},{"name":"Applethwaite","type":"village","lat":54.62128,"lng":-3.13955},{"name":"Appleton","type":"suburb","lat":53.37439,"lng":-2.73333},{"name":"Appleton","type":"village","lat":51.70937,"lng":-1.36129},{"name":"Appleton Park","type":"suburb","lat":53.34941,"lng":-2.57476},{"name":"Appleton Roebuck","type":"village","lat":53.87442,"lng":-1.15773},{"name":"Appleton Thorn","type":"village","lat":53.35039,"lng":-2.54515},{"name":"Appleton Wiske","type":"village","lat":54.43728,"lng":-1.39957},{"name":"Appleton-le-Moors","type":"village","lat":54.28308,"lng":-0.87323},{"name":"Appleton-le-Street","type":"village","lat":54.15201,"lng":-0.87247},{"name":"Appletree","type":"hamlet","lat":52.14337,"lng":-1.29377},{"name":"Appletree","type":"hamlet","lat":52.56408,"lng":-3.00174},{"name":"Appletreehall","type":"hamlet","lat":55.44879,"lng":-2.76299},{"name":"Appletreewick","type":"village","lat":54.03692,"lng":-1.9215},{"name":"Appley","type":"hamlet","lat":50.98512,"lng":-3.32434},{"name":"Appley","type":"suburb","lat":50.72323,"lng":-1.14462},{"name":"Appley Bridge","type":"village","lat":53.58448,"lng":-2.72073},{"name":"Appley Corner","type":"hamlet","lat":52.05736,"lng":-0.38797},{"name":"Appspond","type":"settlement","lat":51.73748,"lng":-0.38954},{"name":"Apse Heath","type":"village","lat":50.64717,"lng":-1.20281},{"name":"Apsey Green","type":"hamlet","lat":52.22237,"lng":1.32673},{"name":"Apsley","type":"suburb","lat":51.73485,"lng":-0.4647},{"name":"Apsley End","type":"village","lat":51.98507,"lng":-0.36745},{"name":"Apuldram","type":"hamlet","lat":50.82207,"lng":-0.8055},{"name":"Aqueduct","type":"suburb","lat":52.64774,"lng":-2.4601},{"name":"Aquhythie","type":"hamlet","lat":57.255,"lng":-2.42696},{"name":"Arabella","type":"village","lat":57.75268,"lng":-4.01534},{"name":"Arberth","type":"town","lat":51.79972,"lng":-4.74408},{"name":"Arbirlot","type":"village","lat":56.5546,"lng":-2.65121},{"name":"Arborfield","type":"village","lat":51.40287,"lng":-0.91817},{"name":"Arborfield Cross","type":"village","lat":51.39536,"lng":-0.90563},{"name":"Arborfield Garrison","type":"village","lat":51.38641,"lng":-0.89551},{"name":"Arbourthorne","type":"suburb","lat":53.36891,"lng":-1.44467},{"name":"Arbourthorne Estate","type":"suburb","lat":53.35824,"lng":-1.4475},{"name":"Arbroath","type":"town","lat":56.56234,"lng":-2.58408},{"name":"Arbury","type":"suburb","lat":52.22595,"lng":0.12199},{"name":"Arbuthnott","type":"village","lat":56.86944,"lng":-2.33248},{"name":"Arcan","type":"settlement","lat":57.54331,"lng":-4.50741},{"name":"Arcan Muir","type":"settlement","lat":57.54214,"lng":-4.52537},{"name":"Archdeacon Newton","type":"hamlet","lat":54.54939,"lng":-1.60819},{"name":"Archenfield","type":"hamlet","lat":52.07584,"lng":-3.0812},{"name":"Archenfield","type":"suburb","lat":51.90806,"lng":-2.59102},{"name":"Archerfield the Village","type":"village","lat":56.05538,"lng":-2.78916},{"name":"Archiestown","type":"village","lat":57.48127,"lng":-3.28288},{"name":"Arclid","type":"village","lat":53.15828,"lng":-2.31707},{"name":"Arclid Green","type":"hamlet","lat":53.15279,"lng":-2.32476},{"name":"Ardachew","type":"suburb","lat":58.01394,"lng":-3.87065},{"name":"Ardachu","type":"hamlet","lat":58.00172,"lng":-4.24436},{"name":"Ardallie","type":"hamlet","lat":57.44306,"lng":-1.98409},{"name":"Ardaneaskan","type":"hamlet","lat":57.35687,"lng":-5.60663},{"name":"Ardanstur","type":"hamlet","lat":56.26641,"lng":-5.51261},{"name":"Ardarroch","type":"hamlet","lat":57.39602,"lng":-5.60245},{"name":"Ardbeg","type":"hamlet","lat":55.6424,"lng":-6.10968},{"name":"Ardbeg","type":"village","lat":55.85074,"lng":-5.06307},{"name":"Ardbrecknish","type":"hamlet","lat":56.3431,"lng":-5.1242},{"name":"Ardcharnich","type":"hamlet","lat":57.84956,"lng":-5.07876},{"name":"Ardchattan","type":"village","lat":56.46229,"lng":-5.29581},{"name":"Ardchiavaig","type":"settlement","lat":56.29274,"lng":-6.2272},{"name":"Ardchonnell","type":"settlement","lat":56.2608,"lng":-5.25975},{"name":"Ardchyle","type":"hamlet","lat":56.43032,"lng":-4.39161},{"name":"Arddleen","type":"village","lat":52.73463,"lng":-3.09938},{"name":"Ardeley","type":"village","lat":51.92774,"lng":-0.09694},{"name":"Ardelve","type":"village","lat":57.28468,"lng":-5.53264},{"name":"Arden","type":"hamlet","lat":56.0259,"lng":-4.63452},{"name":"Arden","type":"suburb","lat":55.80726,"lng":-4.33023},{"name":"Arden Park","type":"suburb","lat":53.42001,"lng":-2.12359},{"name":"Ardendrain","type":"settlement","lat":57.40952,"lng":-4.48133},{"name":"Ardens Grafton","type":"village","lat":52.18676,"lng":-1.83433},{"name":"Ardentallen","type":"settlement","lat":56.35903,"lng":-5.50286},{"name":"Ardentinny","type":"village","lat":56.04286,"lng":-4.90936},{"name":"Ardeonaig","type":"village","lat":56.49516,"lng":-4.16448},{"name":"Ardersier","type":"village","lat":57.5686,"lng":-4.0366},{"name":"Ardery","type":"settlement","lat":56.70106,"lng":-5.67086},{"name":"Ardessie","type":"hamlet","lat":57.85407,"lng":-5.28375},{"name":"Ardfern","type":"village","lat":56.18105,"lng":-5.53646},{"name":"Ardfernal","type":"hamlet","lat":55.87577,"lng":-5.90243},{"name":"Ardfin","type":"settlement","lat":55.80143,"lng":-6.0111},{"name":"Ardgartan","type":"hamlet","lat":56.18822,"lng":-4.7836},{"name":"Ardgay","type":"village","lat":57.88199,"lng":-4.36339},{"name":"Ardgayhill","type":"settlement","lat":57.88006,"lng":-4.37195},{"name":"Ardheslaig","type":"hamlet","lat":57.53911,"lng":-5.70709},{"name":"Ardindrean","type":"hamlet","lat":57.8434,"lng":-5.10168},{"name":"Ardingly","type":"village","lat":51.0485,"lng":-0.07809},{"name":"Ardington","type":"village","lat":51.59236,"lng":-1.37869},{"name":"Ardleigh","type":"village","lat":51.92444,"lng":0.98475},{"name":"Ardleigh Green","type":"suburb","lat":51.58085,"lng":0.22015},{"name":"Ardleigh Heath","type":"hamlet","lat":51.93354,"lng":0.97492},{"name":"Ardler","type":"suburb","lat":56.48604,"lng":-3.01605},{"name":"Ardler","type":"village","lat":56.56346,"lng":-3.1999},{"name":"Ardley","type":"village","lat":51.94175,"lng":-1.21192},{"name":"Ardley End","type":"village","lat":51.80776,"lng":0.21277},{"name":"Ardlui","type":"settlement","lat":56.2999,"lng":-4.72035},{"name":"Ardmair","type":"settlement","lat":57.93383,"lng":-5.19637},{"name":"Ardminish","type":"village","lat":55.67403,"lng":-5.74105},{"name":"Ardmore","type":"hamlet","lat":57.84561,"lng":-4.18754},{"name":"Ardmore","type":"settlement","lat":57.39287,"lng":-7.33377},{"name":"Ardnadam","type":"suburb","lat":55.97922,"lng":-4.94275},{"name":"Ardnagrask","type":"hamlet","lat":57.51144,"lng":-4.47688},{"name":"Ardnarff","type":"settlement","lat":57.36219,"lng":-5.51147},{"name":"Ardnastang","type":"suburb","lat":56.69569,"lng":-5.59115},{"name":"Ardnastruban","type":"settlement","lat":57.49612,"lng":-7.26843},{"name":"Ardo","type":"settlement","lat":57.44247,"lng":-2.2611},{"name":"Ardoch","type":"hamlet","lat":55.95216,"lng":-4.62172},{"name":"Ardpeaton","type":"village","lat":56.02879,"lng":-4.86173},{"name":"Ardrishaig","type":"village","lat":56.01679,"lng":-5.44912},{"name":"Ardroil","type":"settlement","lat":58.17903,"lng":-7.03034},{"name":"Ardross","type":"village","lat":57.73745,"lng":-4.32616},{"name":"Ardrossan","type":"town","lat":55.64058,"lng":-4.8145},{"name":"Ardslave","type":"hamlet","lat":57.80191,"lng":-6.8664},{"name":"Ardsley","type":"suburb","lat":53.54762,"lng":-1.43182},{"name":"Ardtalnaig","type":"hamlet","lat":56.52696,"lng":-4.11191},{"name":"Ardtun","type":"village","lat":56.3273,"lng":-6.23499},{"name":"Arduaine","type":"settlement","lat":56.23214,"lng":-5.5494},{"name":"Ardvannie","type":"settlement","lat":57.85614,"lng":-4.2221},{"name":"Ardvasar","type":"village","lat":57.06015,"lng":-5.905},{"name":"Ardwell","type":"village","lat":54.77073,"lng":-4.94112},{"name":"Ardwick","type":"suburb","lat":53.47181,"lng":-2.22014},{"name":"Areley Kings","type":"suburb","lat":52.33119,"lng":-2.29151},{"name":"Arford","type":"village","lat":51.124,"lng":-0.81858},{"name":"Argoed","type":"hamlet","lat":52.45401,"lng":-3.03892},{"name":"Argoed","type":"hamlet","lat":52.77611,"lng":-2.9945},{"name":"Argoed","type":"hamlet","lat":52.97677,"lng":-2.92957},{"name":"Argoed","type":"village","lat":51.69674,"lng":-3.19431},{"name":"Argos Hill","type":"village","lat":51.03417,"lng":0.23844},{"name":"Aridhglas","type":"settlement","lat":56.32552,"lng":-6.33967},{"name":"Arinacrinachd","type":"hamlet","lat":57.55758,"lng":-5.77258},{"name":"Arinagour","type":"village","lat":56.62367,"lng":-6.52668},{"name":"Arisaig","type":"village","lat":56.90935,"lng":-5.84457},{"name":"Arkendale","type":"village","lat":54.04269,"lng":-1.40745},{"name":"Arkesden","type":"village","lat":51.98908,"lng":0.15688},{"name":"Arkholme","type":"village","lat":54.14419,"lng":-2.64038},{"name":"Arkle Town","type":"hamlet","lat":54.41304,"lng":-1.9904},{"name":"Arkleby","type":"settlement","lat":54.74223,"lng":-3.33679},{"name":"Arkleside","type":"hamlet","lat":54.22124,"lng":-1.93428},{"name":"Arkley","type":"suburb","lat":51.64772,"lng":-0.23199},{"name":"Arksey","type":"village","lat":53.55512,"lng":-1.12699},{"name":"Arkwright Town","type":"village","lat":53.23469,"lng":-1.36013},{"name":"Arle","type":"suburb","lat":51.91015,"lng":-2.10317},{"name":"Arlebrook","type":"hamlet","lat":51.77047,"lng":-2.27296},{"name":"Arlecdon","type":"village","lat":54.55681,"lng":-3.47101},{"name":"Arlescote","type":"hamlet","lat":52.13458,"lng":-1.43164},{"name":"Arlesey","type":"village","lat":52.00703,"lng":-0.2655},{"name":"Arleston","type":"suburb","lat":52.69188,"lng":-2.50211},{"name":"Arley","type":"hamlet","lat":53.32415,"lng":-2.49559},{"name":"Arley Green","type":"hamlet","lat":53.32363,"lng":-2.47901},{"name":"Arlingham","type":"village","lat":51.79494,"lng":-2.41325},{"name":"Arlington","type":"hamlet","lat":50.84569,"lng":0.19198},{"name":"Arlington","type":"hamlet","lat":51.14912,"lng":-3.98385},{"name":"Arlington","type":"suburb","lat":52.62356,"lng":1.2768},{"name":"Arlington","type":"village","lat":51.75863,"lng":-1.84084},{"name":"Arlington Beccott","type":"hamlet","lat":51.15844,"lng":-3.97713},{"name":"Armadale","type":"settlement","lat":57.0665,"lng":-5.89902},{"name":"Armadale","type":"town","lat":55.89871,"lng":-3.70006},{"name":"Armadale","type":"village","lat":58.55304,"lng":-4.08788},{"name":"Armathwaite","type":"village","lat":54.80892,"lng":-2.76918},{"name":"Arminghall","type":"village","lat":52.58924,"lng":1.32412},{"name":"Armitage","type":"village","lat":52.74175,"lng":-1.87684},{"name":"Armitage Bridge","type":"suburb","lat":53.61944,"lng":-1.80026},{"name":"Armley","type":"suburb","lat":53.79943,"lng":-1.58457},{"name":"Armscote","type":"village","lat":52.10035,"lng":-1.64596},{"name":"Armshead","type":"suburb","lat":53.03352,"lng":-2.09735},{"name":"Armston","type":"hamlet","lat":52.46092,"lng":-0.44089},{"name":"Armthorpe","type":"village","lat":53.53667,"lng":-1.06148},{"name":"Arnaby","type":"hamlet","lat":54.25114,"lng":-3.25564},{"name":"Arnage","type":"hamlet","lat":57.44003,"lng":-2.07506},{"name":"Arncliffe","type":"village","lat":54.14216,"lng":-2.10623},{"name":"Arncroach","type":"village","lat":56.23606,"lng":-2.78627},{"name":"Arne","type":"hamlet","lat":50.69277,"lng":-2.04024},{"name":"Arnesby","type":"village","lat":52.52641,"lng":-1.09221},{"name":"Arnisdale","type":"hamlet","lat":57.13447,"lng":-5.56601},{"name":"Arnish","type":"settlement","lat":57.45863,"lng":-6.01271},{"name":"Arniston","type":"suburb","lat":55.84769,"lng":-3.05702},{"name":"Arno's Vale","type":"suburb","lat":51.44147,"lng":-2.55997},{"name":"Arnol","type":"village","lat":58.34327,"lng":-6.59653},{"name":"Arnold","type":"town","lat":53.00237,"lng":-1.12595},{"name":"Arnold","type":"village","lat":53.857,"lng":-0.28897},{"name":"Arnothill","type":"suburb","lat":55.99849,"lng":-3.79335},{"name":"Arnprior","type":"settlement","lat":56.1267,"lng":-4.23373},{"name":"Arnside","type":"village","lat":54.20161,"lng":-2.83544},{"name":"Aros","type":"settlement","lat":56.53179,"lng":-5.97541},{"name":"Arowry","type":"hamlet","lat":52.94712,"lng":-2.80701},{"name":"Arpafeelie","type":"hamlet","lat":57.52285,"lng":-4.3164},{"name":"Arpinge","type":"hamlet","lat":51.10996,"lng":1.13087},{"name":"Arrad Foot","type":"hamlet","lat":54.2194,"lng":-3.0625},{"name":"Arradoul","type":"village","lat":57.65266,"lng":-2.97293},{"name":"Arram","type":"hamlet","lat":53.88465,"lng":-0.42571},{"name":"Arran Point","type":"settlement","lat":55.6426,"lng":-4.40572},{"name":"Arrathorne","type":"hamlet","lat":54.33458,"lng":-1.69302},{"name":"Arreton","type":"village","lat":50.67307,"lng":-1.23665},{"name":"Arrington","type":"village","lat":52.13444,"lng":-0.06214},{"name":"Arrochar","type":"village","lat":56.19684,"lng":-4.74417},{"name":"Arrow","type":"village","lat":52.20643,"lng":-1.88444},{"name":"Arrow Green","type":"settlement","lat":52.22366,"lng":-2.82525},{"name":"Arrowe Hill","type":"suburb","lat":53.37566,"lng":-3.0996},{"name":"Arrowthwaite","type":"suburb","lat":54.54208,"lng":-3.59498},{"name":"Arrunden","type":"hamlet","lat":53.55454,"lng":-1.79185},{"name":"Arscott","type":"hamlet","lat":52.66492,"lng":-2.83624},{"name":"Arthington","type":"village","lat":53.8967,"lng":-1.58621},{"name":"Arthingworth","type":"village","lat":52.42535,"lng":-0.89211},{"name":"Arthog","type":"village","lat":52.71036,"lng":-4.01313},{"name":"Arthrath","type":"hamlet","lat":57.41716,"lng":-2.06042},{"name":"Arthur's Hill","type":"suburb","lat":54.97565,"lng":-1.63521},{"name":"Arthurlie","type":"suburb","lat":55.79666,"lng":-4.39436},{"name":"Arthurs View","type":"settlement","lat":53.05918,"lng":-1.34687},{"name":"Arthursdale","type":"suburb","lat":53.83375,"lng":-1.42559},{"name":"Arthurstone","type":"hamlet","lat":56.5769,"lng":-3.20233},{"name":"Artington","type":"village","lat":51.21997,"lng":-0.58056},{"name":"Arundel","type":"town","lat":50.85427,"lng":-0.55387},{"name":"Aryhoulan","type":"settlement","lat":56.76814,"lng":-5.24862},{"name":"Asby","type":"village","lat":54.56948,"lng":-3.45315},{"name":"Ascog","type":"village","lat":55.82376,"lng":-5.02431},{"name":"Ascot","type":"village","lat":51.41081,"lng":-0.6754},{"name":"Ascott","type":"hamlet","lat":51.90121,"lng":-0.70242},{"name":"Ascott","type":"hamlet","lat":52.0101,"lng":-1.53114},{"name":"Ascott-under-Wychwood","type":"village","lat":51.86512,"lng":-1.56497},{"name":"Asenby","type":"village","lat":54.17286,"lng":-1.39012},{"name":"Asfordby","type":"village","lat":52.7642,"lng":-0.95141},{"name":"Asfordby Hill","type":"village","lat":52.76729,"lng":-0.92484},{"name":"Asgarby","type":"hamlet","lat":52.99293,"lng":-0.33842},{"name":"Asgarby","type":"hamlet","lat":53.18065,"lng":-0.0036},{"name":"Ash","type":"hamlet","lat":50.33659,"lng":-3.6344},{"name":"Ash","type":"hamlet","lat":50.892,"lng":-2.19239},{"name":"Ash","type":"village","lat":50.9828,"lng":-2.74992},{"name":"Ash","type":"village","lat":51.24566,"lng":-0.72559},{"name":"Ash","type":"village","lat":51.27894,"lng":1.2779},{"name":"Ash","type":"village","lat":51.35693,"lng":0.29439},{"name":"Ash Bank","type":"suburb","lat":53.02048,"lng":-2.11054},{"name":"Ash Brake","type":"suburb","lat":51.60108,"lng":-1.80179},{"name":"Ash Corner","type":"hamlet","lat":52.15457,"lng":1.38859},{"name":"Ash Cross","type":"hamlet","lat":50.85393,"lng":-4.10654},{"name":"Ash Cross","type":"hamlet","lat":51.00221,"lng":-3.0243},{"name":"Ash Estates","type":"suburb","lat":51.39051,"lng":-0.42429},{"name":"Ash Green","type":"village","lat":51.23951,"lng":-0.70906},{"name":"Ash Green","type":"village","lat":52.46221,"lng":-1.50996},{"name":"Ash Magna","type":"village","lat":52.95336,"lng":-2.64204},{"name":"Ash Mill","type":"hamlet","lat":50.99583,"lng":-3.73189},{"name":"Ash Parva","type":"hamlet","lat":52.95083,"lng":-2.63183},{"name":"Ash Priors","type":"village","lat":51.05858,"lng":-3.21151},{"name":"Ash Street","type":"hamlet","lat":52.08105,"lng":0.93273},{"name":"Ash Thomas","type":"village","lat":50.89161,"lng":-3.41609},{"name":"Ash Vale","type":"village","lat":51.27246,"lng":-0.72235},{"name":"Ashampstead","type":"village","lat":51.48882,"lng":-1.18605},{"name":"Ashampstead Green","type":"hamlet","lat":51.492,"lng":-1.18791},{"name":"Ashbank","type":"hamlet","lat":51.2508,"lng":0.61781},{"name":"Ashbocking","type":"hamlet","lat":52.14773,"lng":1.17086},{"name":"Ashbocking","type":"village","lat":52.13957,"lng":1.18725},{"name":"Ashbourne","type":"town","lat":53.01772,"lng":-1.73173},{"name":"Ashbrittle","type":"village","lat":50.98434,"lng":-3.35166},{"name":"Ashbrook","type":"hamlet","lat":51.93534,"lng":-0.25233},{"name":"Ashbrook","type":"suburb","lat":52.54168,"lng":-2.80966},{"name":"Ashbrooke","type":"suburb","lat":54.89533,"lng":-1.38899},{"name":"Ashburton","type":"town","lat":50.51562,"lng":-3.75563},{"name":"Ashbury","type":"hamlet","lat":50.7614,"lng":-4.11842},{"name":"Ashbury","type":"village","lat":51.56374,"lng":-1.61996},{"name":"Ashby","type":"suburb","lat":53.56389,"lng":-0.64674},{"name":"Ashby Folville","type":"village","lat":52.70194,"lng":-0.9609},{"name":"Ashby Hill","type":"hamlet","lat":53.48629,"lng":-0.12769},{"name":"Ashby Magna","type":"village","lat":52.51199,"lng":-1.17738},{"name":"Ashby Parva","type":"village","lat":52.49064,"lng":-1.226},{"name":"Ashby Puerorum","type":"settlement","lat":53.22538,"lng":-0.01338},{"name":"Ashby St Ledgers","type":"village","lat":52.30832,"lng":-1.16218},{"name":"Ashby St Mary","type":"village","lat":52.56963,"lng":1.43039},{"name":"Ashby Woulds","type":"settlement","lat":52.74223,"lng":-1.55086},{"name":"Ashby by Partney","type":"village","lat":53.17725,"lng":0.13529},{"name":"Ashby cum Fenby","type":"village","lat":53.48909,"lng":-0.11157},{"name":"Ashby de la Launde","type":"village","lat":53.08178,"lng":-0.42619},{"name":"Ashby-de-la-Zouch","type":"town","lat":52.74696,"lng":-1.47185},{"name":"Ashchurch","type":"village","lat":51.99784,"lng":-2.10551},{"name":"Ashcombe","type":"hamlet","lat":50.60585,"lng":-3.53686},{"name":"Ashcott","type":"village","lat":51.12912,"lng":-2.81063},{"name":"Ashcott Corner","type":"hamlet","lat":51.15363,"lng":-2.78899},{"name":"Ashdon","type":"village","lat":52.05492,"lng":0.31317},{"name":"Ashe","type":"hamlet","lat":51.24608,"lng":-1.23512},{"name":"Ashe Warren","type":"hamlet","lat":51.26208,"lng":-1.23223},{"name":"Asheldham","type":"village","lat":51.67669,"lng":0.85201},{"name":"Ashen","type":"village","lat":52.05069,"lng":0.54688},{"name":"Ashendon","type":"village","lat":51.82172,"lng":-0.97861},{"name":"Ashengrove","type":"hamlet","lat":50.68572,"lng":-1.37351},{"name":"Ashenhurst","type":"suburb","lat":53.63331,"lng":-1.7764},{"name":"Asheridge","type":"village","lat":51.72977,"lng":-0.64054},{"name":"Ashey","type":"hamlet","lat":50.70025,"lng":-1.18305},{"name":"Ashfield","type":"hamlet","lat":50.97443,"lng":-1.47945},{"name":"Ashfield","type":"hamlet","lat":52.16843,"lng":-2.34741},{"name":"Ashfield","type":"suburb","lat":51.91073,"lng":-2.58569},{"name":"Ashfield","type":"suburb","lat":53.70409,"lng":-1.41481},{"name":"Ashfield","type":"village","lat":51.94112,"lng":-3.90293},{"name":"Ashfield","type":"village","lat":56.2126,"lng":-3.95884},{"name":"Ashfield Cum Thorpe","type":"village","lat":52.2204,"lng":1.23496},{"name":"Ashfield Green","type":"hamlet","lat":52.17206,"lng":0.57199},{"name":"Ashfield Green","type":"hamlet","lat":52.31405,"lng":1.31472},{"name":"Ashfields","type":"hamlet","lat":52.83366,"lng":-2.44142},{"name":"Ashford","type":"hamlet","lat":50.32251,"lng":-3.84335},{"name":"Ashford","type":"town","lat":51.14844,"lng":0.87109},{"name":"Ashford","type":"town","lat":51.43287,"lng":-0.46206},{"name":"Ashford","type":"village","lat":50.92867,"lng":-1.80614},{"name":"Ashford","type":"village","lat":51.09739,"lng":-4.09868},{"name":"Ashford Bowdler","type":"hamlet","lat":52.33545,"lng":-2.71236},{"name":"Ashford Carbonell","type":"village","lat":52.33639,"lng":-2.70247},{"name":"Ashford Common","type":"village","lat":51.42544,"lng":-0.43422},{"name":"Ashford Hill","type":"village","lat":51.35363,"lng":-1.20382},{"name":"Ashford in the Water","type":"village","lat":53.22857,"lng":-1.71145},{"name":"Ashgate","type":"suburb","lat":53.23972,"lng":-1.45729},{"name":"Ashgate","type":"suburb","lat":53.24188,"lng":-1.47672},{"name":"Ashgill","type":"village","lat":55.72753,"lng":-3.92947},{"name":"Ashgrove","type":"suburb","lat":51.32005,"lng":-2.41926},{"name":"Ashill","type":"village","lat":50.89425,"lng":-3.29933},{"name":"Ashill","type":"village","lat":50.952,"lng":-2.96693},{"name":"Ashill","type":"village","lat":52.60609,"lng":0.78587},{"name":"Ashingdon","type":"village","lat":51.60747,"lng":0.69141},{"name":"Ashington","type":"hamlet","lat":50.78359,"lng":-2.00002},{"name":"Ashington","type":"hamlet","lat":50.99018,"lng":-2.62623},{"name":"Ashington","type":"town","lat":55.18312,"lng":-1.56906},{"name":"Ashington","type":"village","lat":50.93325,"lng":-0.39002},{"name":"Ashkirk","type":"village","lat":55.4881,"lng":-2.84635},{"name":"Ashland","type":"suburb","lat":52.01545,"lng":-0.73202},{"name":"Ashlett","type":"hamlet","lat":50.82664,"lng":-1.34474},{"name":"Ashleworth","type":"village","lat":51.92844,"lng":-2.27454},{"name":"Ashley","type":"hamlet","lat":50.74666,"lng":-1.62748},{"name":"Ashley","type":"hamlet","lat":51.07514,"lng":-1.45299},{"name":"Ashley","type":"hamlet","lat":51.65242,"lng":-2.09966},{"name":"Ashley","type":"village","lat":50.75798,"lng":-1.63786},{"name":"Ashley","type":"village","lat":50.83888,"lng":-1.80517},{"name":"Ashley","type":"village","lat":51.19126,"lng":1.30093},{"name":"Ashley","type":"village","lat":51.41514,"lng":-2.26734},{"name":"Ashley","type":"village","lat":52.22677,"lng":0.48463},{"name":"Ashley","type":"village","lat":52.5101,"lng":-0.82928},{"name":"Ashley","type":"village","lat":52.92732,"lng":-2.3591},{"name":"Ashley","type":"village","lat":53.35452,"lng":-2.34013},{"name":"Ashley Dale","type":"village","lat":52.92032,"lng":-2.36445},{"name":"Ashley Down","type":"suburb","lat":51.48058,"lng":-2.582},{"name":"Ashley Green","type":"village","lat":51.73689,"lng":-0.58671},{"name":"Ashley Heath","type":"suburb","lat":52.92172,"lng":-2.3756},{"name":"Ashley Heath","type":"suburb","lat":53.37106,"lng":-2.34554},{"name":"Ashley Heath","type":"village","lat":50.83778,"lng":-1.83832},{"name":"Ashley Moor","type":"hamlet","lat":52.30173,"lng":-2.77214},{"name":"Ashley Park","type":"suburb","lat":51.3793,"lng":-0.41932},{"name":"Ashleyhay","type":"hamlet","lat":53.05747,"lng":-1.56318},{"name":"Ashmanhaugh","type":"village","lat":52.73559,"lng":1.42128},{"name":"Ashmansworth","type":"village","lat":51.31455,"lng":-1.40577},{"name":"Ashmansworthy","type":"hamlet","lat":50.93744,"lng":-4.3648},{"name":"Ashmead Green","type":"village","lat":51.69737,"lng":-2.33893},{"name":"Ashmill","type":"hamlet","lat":50.73517,"lng":-4.27798},{"name":"Ashmore","type":"village","lat":50.95983,"lng":-2.12539},{"name":"Ashmore Brook","type":"hamlet","lat":52.6969,"lng":-1.85933},{"name":"Ashmore Green","type":"village","lat":51.42229,"lng":-1.27475},{"name":"Ashmore Lake","type":"suburb","lat":52.59884,"lng":-2.05165},{"name":"Ashmore Park","type":"suburb","lat":52.61345,"lng":-2.0671},{"name":"Ashorne","type":"village","lat":52.21706,"lng":-1.55446},{"name":"Ashover","type":"village","lat":53.16728,"lng":-1.48052},{"name":"Ashover Hay","type":"hamlet","lat":53.1433,"lng":-1.46687},{"name":"Ashow","type":"village","lat":52.33037,"lng":-1.5452},{"name":"Ashperton","type":"village","lat":52.07234,"lng":-2.52126},{"name":"Ashprington","type":"village","lat":50.40154,"lng":-3.66359},{"name":"Ashreigney","type":"village","lat":50.9061,"lng":-3.95056},{"name":"Ashtead","type":"settlement","lat":51.30939,"lng":-0.29966},{"name":"Ashtead Common","type":"suburb","lat":51.31949,"lng":-0.32155},{"name":"Ashton","type":"hamlet","lat":50.4929,"lng":-4.27931},{"name":"Ashton","type":"hamlet","lat":50.97069,"lng":-1.2158},{"name":"Ashton","type":"hamlet","lat":51.24454,"lng":-2.84255},{"name":"Ashton","type":"hamlet","lat":52.27594,"lng":-2.71276},{"name":"Ashton","type":"hamlet","lat":52.63758,"lng":-0.37277},{"name":"Ashton","type":"suburb","lat":55.95593,"lng":-4.82662},{"name":"Ashton","type":"village","lat":50.10961,"lng":-5.35326},{"name":"Ashton","type":"village","lat":52.14204,"lng":-0.88281},{"name":"Ashton","type":"village","lat":52.48239,"lng":-0.44681},{"name":"Ashton Bank","type":"suburb","lat":53.76458,"lng":-2.74878},{"name":"Ashton Common","type":"village","lat":51.32259,"lng":-2.14734},{"name":"Ashton Gate","type":"suburb","lat":51.44012,"lng":-2.61655},{"name":"Ashton Green","type":"hamlet","lat":50.89082,"lng":0.07838},{"name":"Ashton Hayes","type":"village","lat":53.21734,"lng":-2.74281},{"name":"Ashton Heath","type":"suburb","lat":53.48344,"lng":-2.62692},{"name":"Ashton Keynes","type":"village","lat":51.64663,"lng":-1.92978},{"name":"Ashton Vale","type":"suburb","lat":51.43162,"lng":-2.62556},{"name":"Ashton Watering","type":"hamlet","lat":51.42485,"lng":-2.68272},{"name":"Ashton under Hill","type":"village","lat":52.04186,"lng":-2.00555},{"name":"Ashton upon Mersey","type":"suburb","lat":53.4263,"lng":-2.33706},{"name":"Ashton's Green","type":"suburb","lat":53.45184,"lng":-2.6939},{"name":"Ashton-in-Makerfield","type":"town","lat":53.48858,"lng":-2.63851},{"name":"Ashton-on-Ribble","type":"suburb","lat":53.76852,"lng":-2.73952},{"name":"Ashton-under-Lyne","type":"town","lat":53.49033,"lng":-2.0938},{"name":"Ashurst","type":"suburb","lat":53.5637,"lng":-2.77524},{"name":"Ashurst","type":"village","lat":50.89243,"lng":-1.52265},{"name":"Ashurst","type":"village","lat":50.93226,"lng":-0.32283},{"name":"Ashurst","type":"village","lat":51.13051,"lng":0.15981},{"name":"Ashurst Bridge","type":"village","lat":50.91144,"lng":-1.51828},{"name":"Ashurst Wood","type":"village","lat":51.1108,"lng":0.02627},{"name":"Ashvale","type":"suburb","lat":51.78439,"lng":-3.25693},{"name":"Ashwater","type":"village","lat":50.73444,"lng":-4.28907},{"name":"Ashwell","type":"hamlet","lat":50.93886,"lng":-2.90845},{"name":"Ashwell","type":"village","lat":52.04127,"lng":-0.15099},{"name":"Ashwell","type":"village","lat":52.71146,"lng":-0.719},{"name":"Ashwell End","type":"hamlet","lat":52.04467,"lng":-0.17493},{"name":"Ashwellthorpe","type":"village","lat":52.53516,"lng":1.14536},{"name":"Ashwick","type":"hamlet","lat":51.22904,"lng":-2.52611},{"name":"Ashwicken","type":"village","lat":52.74746,"lng":0.50422},{"name":"Ashwood","type":"hamlet","lat":52.49115,"lng":-2.20127},{"name":"Askam in Furness","type":"village","lat":54.1887,"lng":-3.2047},{"name":"Aske","type":"hamlet","lat":54.42724,"lng":-1.72769},{"name":"Askern","type":"village","lat":53.61599,"lng":-1.15226},{"name":"Askerswell","type":"village","lat":50.73269,"lng":-2.66862},{"name":"Askett","type":"village","lat":51.73947,"lng":-0.81981},{"name":"Askham","type":"village","lat":53.26697,"lng":-0.8916},{"name":"Askham","type":"village","lat":54.60707,"lng":-2.75665},{"name":"Askham Bryan","type":"village","lat":53.92376,"lng":-1.15886},{"name":"Askham Richard","type":"village","lat":53.92588,"lng":-1.18552},{"name":"Askomill","type":"suburb","lat":55.42883,"lng":-5.58534},{"name":"Askrigg","type":"village","lat":54.31479,"lng":-2.08117},{"name":"Askwith","type":"village","lat":53.9303,"lng":-1.74394},{"name":"Aslackby","type":"village","lat":52.85994,"lng":-0.39048},{"name":"Aslacton","type":"village","lat":52.47512,"lng":1.17426},{"name":"Aslockton","type":"village","lat":52.95289,"lng":-0.8971},{"name":"Asney","type":"hamlet","lat":51.12933,"lng":-2.76308},{"name":"Aspall","type":"hamlet","lat":52.23924,"lng":1.1711},{"name":"Aspatria","type":"town","lat":54.76345,"lng":-3.33342},{"name":"Aspenden","type":"village","lat":51.93602,"lng":-0.02103},{"name":"Asperton","type":"settlement","lat":52.92261,"lng":-0.12663},{"name":"Aspley","type":"hamlet","lat":52.89421,"lng":-2.2731},{"name":"Aspley","type":"suburb","lat":52.97005,"lng":-1.19954},{"name":"Aspley","type":"suburb","lat":53.64323,"lng":-1.77526},{"name":"Aspley Guise","type":"village","lat":52.01389,"lng":-0.62832},{"name":"Aspley Heath","type":"village","lat":52.00419,"lng":-0.65187},{"name":"Aspley Heath","type":"village","lat":52.33189,"lng":-1.85965},{"name":"Aspull","type":"village","lat":53.5686,"lng":-2.58537},{"name":"Aspull Common","type":"suburb","lat":53.47827,"lng":-2.54522},{"name":"Assater","type":"hamlet","lat":60.49967,"lng":-1.45967},{"name":"Asselby","type":"village","lat":53.74383,"lng":-0.91226},{"name":"Asserby","type":"hamlet","lat":53.2751,"lng":0.24104},{"name":"Asserby Turn","type":"hamlet","lat":53.2739,"lng":0.21615},{"name":"Assington","type":"village","lat":52.00764,"lng":0.81656},{"name":"Assington Green","type":"hamlet","lat":52.13476,"lng":0.58986},{"name":"Astbury","type":"village","lat":53.15104,"lng":-2.23234},{"name":"Astbury Marsh","type":"suburb","lat":53.15738,"lng":-2.23448},{"name":"Astcote","type":"village","lat":52.17365,"lng":-1.01147},{"name":"Asterby","type":"settlement","lat":53.28931,"lng":-0.10548},{"name":"Asterley","type":"village","lat":52.6582,"lng":-2.92659},{"name":"Asterton","type":"hamlet","lat":52.51525,"lng":-2.8886},{"name":"Asthall","type":"hamlet","lat":51.79983,"lng":-1.58267},{"name":"Asthall Leigh","type":"hamlet","lat":51.81208,"lng":-1.55497},{"name":"Astle","type":"hamlet","lat":57.89948,"lng":-4.11898},{"name":"Astley","type":"hamlet","lat":52.50163,"lng":-1.54454},{"name":"Astley","type":"village","lat":52.31053,"lng":-2.30557},{"name":"Astley","type":"village","lat":52.76369,"lng":-2.69868},{"name":"Astley","type":"village","lat":53.50003,"lng":-2.45908},{"name":"Astley Abbotts","type":"village","lat":52.56522,"lng":-2.4302},{"name":"Astley Bridge","type":"suburb","lat":53.60418,"lng":-2.43151},{"name":"Astley Burf","type":"hamlet","lat":52.30907,"lng":-2.28308},{"name":"Astley Cross","type":"suburb","lat":52.32442,"lng":-2.29439},{"name":"Astley Green","type":"suburb","lat":53.49301,"lng":-2.44962},{"name":"Astley Village","type":"suburb","lat":53.66238,"lng":-2.64522},{"name":"Astmoor","type":"suburb","lat":53.34396,"lng":-2.70362},{"name":"Aston","type":"hamlet","lat":51.55124,"lng":-0.87025},{"name":"Aston","type":"hamlet","lat":52.25956,"lng":-2.79385},{"name":"Aston","type":"hamlet","lat":52.53846,"lng":-2.28355},{"name":"Aston","type":"hamlet","lat":52.68349,"lng":-2.57482},{"name":"Aston","type":"hamlet","lat":52.8104,"lng":-2.15635},{"name":"Aston","type":"hamlet","lat":52.88448,"lng":-1.75376},{"name":"Aston","type":"hamlet","lat":53.29951,"lng":-2.66206},{"name":"Aston","type":"hamlet","lat":53.35181,"lng":-1.72271},{"name":"Aston","type":"suburb","lat":52.50165,"lng":-1.88352},{"name":"Aston","type":"village","lat":51.7248,"lng":-1.50814},{"name":"Aston","type":"village","lat":51.88565,"lng":-0.15106},{"name":"Aston","type":"village","lat":52.84824,"lng":-2.69387},{"name":"Aston","type":"village","lat":52.96602,"lng":-2.36659},{"name":"Aston","type":"village","lat":53.01654,"lng":-2.58139},{"name":"Aston","type":"village","lat":53.19637,"lng":-3.0417},{"name":"Aston","type":"village","lat":53.36267,"lng":-1.29793},{"name":"Aston Abbotts","type":"village","lat":51.87301,"lng":-0.77027},{"name":"Aston Bank","type":"hamlet","lat":52.32972,"lng":-2.55731},{"name":"Aston Botterell","type":"hamlet","lat":52.45482,"lng":-2.54288},{"name":"Aston Cantlow","type":"village","lat":52.23753,"lng":-1.79834},{"name":"Aston Clinton","type":"village","lat":51.80191,"lng":-0.73335},{"name":"Aston Crews","type":"hamlet","lat":51.90721,"lng":-2.47928},{"name":"Aston Cross","type":"village","lat":52.00211,"lng":-2.08597},{"name":"Aston End","type":"hamlet","lat":51.902,"lng":-0.15123},{"name":"Aston Eyre","type":"hamlet","lat":52.54342,"lng":-2.51223},{"name":"Aston Fields","type":"suburb","lat":52.32276,"lng":-2.05037},{"name":"Aston Flamville","type":"village","lat":52.52973,"lng":-1.31946},{"name":"Aston Heath","type":"hamlet","lat":52.89186,"lng":-1.74583},{"name":"Aston Heath","type":"hamlet","lat":53.30572,"lng":-2.65839},{"name":"Aston Ingham","type":"village","lat":51.91058,"lng":-2.45867},{"name":"Aston Magna","type":"village","lat":52.01934,"lng":-1.71339},{"name":"Aston Munslow","type":"village","lat":52.47594,"lng":-2.72154},{"name":"Aston New Town","type":"suburb","lat":52.49622,"lng":-1.88791},{"name":"Aston Pigott","type":"hamlet","lat":52.6478,"lng":-2.98046},{"name":"Aston Rogers","type":"hamlet","lat":52.65155,"lng":-2.97311},{"name":"Aston Rowant","type":"village","lat":51.68186,"lng":-0.94741},{"name":"Aston Sandford","type":"hamlet","lat":51.76384,"lng":-0.90447},{"name":"Aston Somerville","type":"village","lat":52.04164,"lng":-1.93318},{"name":"Aston Subedge","type":"hamlet","lat":52.07137,"lng":-1.79964},{"name":"Aston Tirrold","type":"village","lat":51.56784,"lng":-1.19959},{"name":"Aston Upthorpe","type":"village","lat":51.5733,"lng":-1.2004},{"name":"Aston juxta Mondrum","type":"village","lat":53.10718,"lng":-2.52135},{"name":"Aston le Walls","type":"village","lat":52.15303,"lng":-1.27735},{"name":"Aston on Carrant","type":"village","lat":52.0094,"lng":-2.0873},{"name":"Aston on Clun","type":"village","lat":52.43008,"lng":-2.89472},{"name":"Aston-by-Stone","type":"village","lat":52.87185,"lng":-2.13023},{"name":"Aston-on-Trent","type":"village","lat":52.86121,"lng":-1.38506},{"name":"Astrop","type":"suburb","lat":52.02257,"lng":-1.26645},{"name":"Astrope","type":"hamlet","lat":51.82676,"lng":-0.70369},{"name":"Astwick","type":"hamlet","lat":52.03222,"lng":-0.22579},{"name":"Astwith","type":"hamlet","lat":53.17274,"lng":-1.34717},{"name":"Astwood","type":"hamlet","lat":52.2844,"lng":-2.0982},{"name":"Astwood","type":"suburb","lat":52.21135,"lng":-2.20678},{"name":"Astwood","type":"village","lat":52.116,"lng":-0.61052},{"name":"Astwood Bank","type":"village","lat":52.2572,"lng":-1.93719},{"name":"Aswarby","type":"settlement","lat":52.94629,"lng":-0.4126},{"name":"Aswardby","type":"settlement","lat":53.21267,"lng":0.06064},{"name":"Atch Lench","type":"village","lat":52.15536,"lng":-1.95191},{"name":"Atcham","type":"village","lat":52.6796,"lng":-2.67886},{"name":"Athelhampton","type":"hamlet","lat":50.74678,"lng":-2.32823},{"name":"Athelington","type":"hamlet","lat":52.29309,"lng":1.23969},{"name":"Athelney","type":"hamlet","lat":51.05693,"lng":-2.93279},{"name":"Athelstaneford","type":"village","lat":55.98898,"lng":-2.74568},{"name":"Atherfield Green","type":"hamlet","lat":50.61401,"lng":-1.34577},{"name":"Atherington","type":"village","lat":50.80229,"lng":-0.57876},{"name":"Atherington","type":"village","lat":50.9891,"lng":-4.00851},{"name":"Athersley North","type":"suburb","lat":53.58032,"lng":-1.47363},{"name":"Athersley South","type":"suburb","lat":53.57608,"lng":-1.46848},{"name":"Atherstone","type":"hamlet","lat":50.94461,"lng":-2.87797},{"name":"Atherstone","type":"town","lat":52.57722,"lng":-1.54642},{"name":"Atherstone on Stour","type":"village","lat":52.15678,"lng":-1.70195},{"name":"Atherton","type":"town","lat":53.52551,"lng":-2.48723},{"name":"Atkinson Hill","type":"suburb","lat":53.77997,"lng":-1.52419},{"name":"Atlow","type":"settlement","lat":53.03676,"lng":-1.65687},{"name":"Atrim","type":"hamlet","lat":50.75822,"lng":-2.78327},{"name":"Attadale","type":"hamlet","lat":57.39346,"lng":-5.44887},{"name":"Attenborough","type":"suburb","lat":52.90698,"lng":-1.23206},{"name":"Atterbury","type":"suburb","lat":52.04837,"lng":-0.70089},{"name":"Atterby","type":"hamlet","lat":53.42458,"lng":-0.52442},{"name":"Attercliffe","type":"suburb","lat":53.39213,"lng":-1.43424},{"name":"Attercliffe Hill Top","type":"suburb","lat":53.40003,"lng":-1.42057},{"name":"Atterley","type":"hamlet","lat":52.57413,"lng":-2.5314},{"name":"Atterton","type":"hamlet","lat":52.58163,"lng":-1.48039},{"name":"Attleborough","type":"suburb","lat":52.51478,"lng":-1.45481},{"name":"Attleborough","type":"town","lat":52.51644,"lng":1.01456},{"name":"Attlebridge","type":"village","lat":52.70719,"lng":1.15111},{"name":"Attleton Green","type":"hamlet","lat":52.1651,"lng":0.54073},{"name":"Atwick","type":"village","lat":53.93985,"lng":-0.18788},{"name":"Atworth","type":"village","lat":51.39264,"lng":-2.19692},{"name":"Auberrow","type":"hamlet","lat":52.12197,"lng":-2.74392},{"name":"Aubourn","type":"village","lat":53.15169,"lng":-0.62585},{"name":"Auchagallon","type":"hamlet","lat":55.55883,"lng":-5.34376},{"name":"Aucharnie","type":"settlement","lat":57.46046,"lng":-2.60835},{"name":"Auchattie","type":"hamlet","lat":57.04194,"lng":-2.50662},{"name":"Auchbreck","type":"hamlet","lat":57.34104,"lng":-3.31452},{"name":"Auchenback","type":"suburb","lat":55.79187,"lng":-4.37672},{"name":"Auchenblae","type":"village","lat":56.89966,"lng":-2.45017},{"name":"Auchenbowie","type":"settlement","lat":56.06902,"lng":-3.94104},{"name":"Auchencairn","type":"hamlet","lat":55.14686,"lng":-3.60289},